id,trail_id,trail_name,description,latitude,longitude,park_name,distance,url,,,
1,1,Dornan Drive Parking Lot (South),NULL,37.9103,-122.388,Miller Knox Regional Shoreline,1453.82,http://www.ebparks.org/,,,
2,2,Seacliff Drive Walk-In Entrance,NULL,37.9108,-122.374,Miller Knox Regional Shoreline,1453.08,http://www.ebparks.org/,,,
3,3,Dornan Drive Parking Lot (Picnic Area 2),NULL,37.914,-122.384,Miller Knox Regional Shoreline,1453.6,http://www.ebparks.org/,,,
4,4,Dornan Drive Parking Lot (Picnic Area 1),NULL,37.9154,-122.384,Miller Knox Regional Shoreline,1453.59,http://www.ebparks.org/,,,
5,6,Crest Avenue Walk-In Entrance,NULL,37.9213,-122.384,Miller Knox Regional Shoreline,1453.56,http://www.ebparks.org/,,,
6,5,Canal Blvd Walk-In Entrance,NULL,37.9178,-122.373,Miller Knox Regional Shoreline,1452.98,http://www.ebparks.org/,,,
7,7,Sunset Park-Geneva St,NULL,37.6701,-121.772,Robertson Park,1422.26,http://www.larpd.dst.ca.us/,,,
8,8,Robertson Park,NULL,37.6669,-121.753,Robertson Park,1421.22,http://www.larpd.dst.ca.us/,,,
9,9,Del Valle Regional Park,NULL,37.5865,-121.704,Lake Del Valle,1419.19,http://www.ebparks.org/,,,
10,10,Ernie Rodrigues Sports Field,NULL,37.6712,-121.752,Robertson Park,1421.12,http://www.larpd.dst.ca.us/,,,
11,11,Bethany Res. (Christensen Rd),NULL,37.7819,-121.617,Bethany Reservoir,1412.95,http://www.parks.ca.gov/,,,
12,12,Laughlin Road Staging Area,NULL,37.747,-121.71,Brushy Peak Regional Preserve,1418.26,http://www.larpd.dst.ca.us/,,,
13,13,Del Valle Road Walk-In Entrance near Mendenhal Road,NULL,37.6033,-121.687,Del Valle Regional Park,1418.15,http://www.ebparks.org/,,,
14,14,Del Valle Road Walk-In Entrance at East Ridge Trail,NULL,37.6006,-121.689,Del Valle Regional Park,1418.26,http://www.ebparks.org/,,,
15,15,Del Valle Road Walk-In Entrance south of East Ridge Trail,NULL,37.5947,-121.688,Del Valle Regional Park,1418.27,http://www.ebparks.org/,,,
16,16,Del Valle Road Walk-In Entance at District Service Road,NULL,37.5934,-121.688,Del Valle Regional Park,1418.28,http://www.ebparks.org/,,,
17,17,Del Valle Road Walk-In Entrance to the Ridgeline Trail,NULL,37.5919,-121.688,Del Valle Regional Park,1418.3,http://www.ebparks.org/,,,
18,18,Del Valle Road Park Entrance/Kiosk,NULL,37.584,-121.689,Del Valle Regional Park,1418.41,http://www.ebparks.org/,,,
19,19,Anza-Pine Road Walk-In Entrance,,37.5306,-121.91,Mission Peak Regional Preserve,1430.85,http://www.ebparks.org/,,,
20,20,Sunol Regional Wilderness,"<p>
	While not easily accessible by public transit, this park is a great escape from urban living. &nbsp;Alameda Creek is beautiful and full of life. &nbsp;And the Old Green Barn Visitor Center is an excellent place to cool off and learn about the area. &nbsp;</p>
",37.5154,-121.831,Sunol Regional Wilderness,1426.68,http://www.ebparks.org/,,,
21,21,Welch Creek Road Staging Area,NULL,37.5365,-121.841,Sunol Regional Wilderness,1427.06,http://www.ebparks.org/,,,
22,22,Park Access Road Staging Area at Vineyard Avenue,NULL,37.6659,-121.842,Shadow Cliffs Regional Recreation Area,1426.06,http://www.ebparks.org/,,,
23,23,Pat Geary Road Park Entrance,NULL,37.5305,-121.853,San Francisco Water District,1427.76,http://sfwater.org/home.cfm,,,
24,24,Foothill Road Walk-In Entrance,NULL,37.5947,-121.888,Pleasanton Ridge Regional Park,1429.15,http://www.ebparks.org/,,,
25,25,Foothill Road Park Entrance,,37.6147,-121.882,Pleasanton Ridge Regional Park,1428.67,http://www.ebparks.org/,,,
26,26,Bodega Head,"<p>
	Viewed from a distance, this trail through the grassy uplands may appear lifeless, but can actually be teeming with wildlife, wildflowers, and unspoiled views of the Sonoma and Marin coastline. Listen for the barks of harbor seals, birdsong, and crashing waves.</p>
<p>
	Barrier Free Access- vist <a href=http://www.wheelingcalscoast.org/site.php?site=103"" target=""_blank"">Wheeling Cal&#39;s Coast</a> for more accessibility details.</p>",,,,,,,,
",38.3035,-123.065,Sonoma Coast State Beach""",1487.72,http://www.parks.ca.gov/,,,,,,,,,
27,27,Pinnacle Gulch Coastal Access,NULL,38.3131,-123.014,Doran Regional Park/Bird Walk Coastal Access,1484.93,http://parks.sonomacounty.ca.gov/,,,
28,28,Robert Louis Stevenson SP-Lake County Hwy 1,NULL,38.6554,-122.606,Robert Louis Stevenson State Park,1460.95,http://www.parks.ca.gov/,,,
29,29,Westwood Hills Wilderness Park,NULL,38.3028,-122.319,Westwood Hills Park,1447.49,http://www.cityofnapa.org/,,,
30,30,Napa River Ecological Reserve,NULL,38.4177,-122.353,Rector Resevoir Wildlife Area,1448.63,http://www.cdva.ca.gov/,,,
31,31,Sugarloaf Ridge State Park,,38.438,-122.514,Sugarloaf Ridge,1457.19,http://www.parks.ca.gov/,,,
32,32,Main Entrance -W Verano Ave,"<p>
	See more at <a href=http://parks.sonomacounty.ca.gov/Get_Outdoors/Parks/Maxwell_Farms_Regional_Park.aspx"" target=""_blank"">Sonoma County Regional Parks.</a></p>",,,,,,,,
<p>,,,,,,,,,,,
"	<span style=""font-family: arial; font-size: small;"">Maxwell Farms Regional Park has 2.5 miles of trails across 40 acres of open space. The trails in the section of the park are virtually level offering easy strolls through corridors of mature bay trees and across remnants of historic orchards.</span></p>",,,,,,,,,,,
",38.3022,-122.479,Maxwell Farms Regional Park""",1456.13,http://parks.sonomacounty.ca.gov/,,,,,,,,,
33,34,Jack London State Historic Park,NULL,38.3564,-122.545,Jack London State Historic Park,1459.33,http://www.parks.ca.gov/,,,
34,35,Highway 12 Entrance,,38.3643,-122.512,Sonoma Valley Regional Park,1457.52,http://parks.sonomacounty.ca.gov/,,,
35,36,Alston Park,NULL,38.323,-122.333,Alston Park,1448.08,http://www.napalandtrust.org/,,,
36,37,Estancia Court Walk-In Entrance,NULL,37.7677,-121.998,Bishop Ranch Regional Open Space,1433.74,http://www.ebparks.org/,,,
37,38,Marksmanship Range Staging Area,NULL,37.7446,-122.102,Anthony Chabot Regional Park,1439.57,http://www.ebparks.org/,,,
38,39,Marciel Road Day Use Parking,NULL,37.741,-122.094,Anthony Chabot Regional Park,1439.19,http://www.ebparks.org/,,,
39,40,Knowland Park,NULL,37.7534,-122.15,Knowland Park/Oakland Zoo,1442.13,http://www.oaklandnet.com/,,,
40,41,Marciel Road Park Entrance/Kiosk,NULL,37.7352,-122.096,Anthony Chabot Regional Park,1439.33,http://www.ebparks.org/,,,
41,42,Redwood Road Walk-In Entrance - Soaring Hawk Trail (south),NULL,37.7673,-122.11,Anthony Chabot Regional Park,1439.83,http://www.ebparks.org/,,,
42,43,Clyde Woolridge Staging Area,NULL,37.7538,-122.119,Anthony Chabot Regional Park,1440.41,http://www.ebparks.org/,,,
43,44,Paddock Drive Walk-In Entrance,NULL,37.7599,-121.988,Bishop Ranch Regional Open Space,1433.29,http://www.ebparks.org/,,,
44,45,Chabot Park Walk-In Entrance,NULL,37.7316,-122.127,Anthony Chabot Regional Park,1441.05,http://www.ebparks.org/,,,
45,47,Marciel Gate Staging Area,NULL,37.7594,-122.105,EBMUD,1439.63,http://www.ebmud.com/,,,
46,49,Heyer Avenue Walk-In Entrance,NULL,37.7037,-122.057,Cull Canyon Regional Recreation Area,1437.44,http://www.ebparks.org/,,,
47,50,Main Entrance Staging Area,NULL,37.7093,-122.055,Cull Canyon Regional Recreation Area,1437.29,http://www.ebparks.org/,,,
48,51,Winifred Drive Walk-In Entrance,NULL,37.7088,-122.058,Cull Canyon Regional Recreation Area,1437.47,http://www.ebparks.org/,,,
49,52,Columiba Drive Walk-In Entrance,NULL,37.7112,-122.057,Cull Canyon Regional Recreation Area,1437.38,http://www.ebparks.org/,,,
50,53,Woodroe Avenue Park Entrance,NULL,37.6895,-122.055,Five Canyons trail corridor,1437.46,http://www.ebparks.org/,,,
51,54,Main Parking Area,NULL,37.692,-122.055,Five Canyons trail corridor,1437.41,http://www.ebparks.org/,,,
52,56,Crest Avenue Walk-In Entrance near Irma Way,NULL,37.7097,-122.106,Anthony Chabot Regional Park,1440.09,http://www.ebparks.org/,,,
53,57,Fairmont Ridge Staging Area,NULL,37.7133,-122.109,Anthony Chabot Regional Park,1440.18,http://www.ebparks.org/,,,
54,58,Fairmont Drive Walk-In Entrance,NULL,37.7145,-122.105,Anthony Chabot Regional Park,1439.99,http://www.ebparks.org/,,,
55,59,Lake Chabot Road Walk-In Entrance,NULL,37.7135,-122.099,Anthony Chabot Regional Park,1439.66,http://www.ebparks.org/,,,
56,60,Public Safety / Nike Classroom Staging Area,NULL,37.7207,-122.096,Anthony Chabot Regional Park,1439.42,http://www.ebparks.org/,,,
57,62,Lake Chabot Road Park Entrance,,37.7152,-122.102,Anthony Chabot Regional Park,1439.81,http://www.ebparks.org/,,,
58,63,Redwood Road Walk-In Entrance at Alta Mira,NULL,37.7187,-122.074,EBMUD,1438.26,http://www.ebmud.com/,,,
59,64,Proctor Staging Area,NULL,37.7215,-122.077,EBMUD,1438.38,http://www.ebmud.com/,,,
60,65,Willow Park Golf Course,NULL,37.726,-122.081,EBMUD,1438.59,http://www.ebmud.com/,,,
61,66,Pescadero Marsh Natural Preserve,NULL,37.2654,-122.412,Pescadero Marsh Natural Preserve,1460.56,http://www.parks.ca.gov/,,,
62,67,Olompali State Historic Park,NULL,38.1514,-122.571,Olompali State Historic Park,1462.06,http://www.parks.ca.gov/,,,
63,68,Crane Creek Regional Park,,38.3442,-122.645,Crane Creek Regional Park,1464.79,http://parks.sonomacounty.ca.gov/,,,
64,69,Helen Putnam Regional Park-Chileno Valley Rd,NULL,38.2126,-122.664,Helen Putnam Regional Park,1466.68,http://parks.sonomacounty.ca.gov/,,,
65,70,Rush Ranch,NULL,38.2088,-122.026,Rush Ranch Open Space,1432.19,http://www.solanolandtrust.org/,,,
66,71,Grant Trail / Rose Garden Lot,"<p>
	Trailhead to the Grant Trail in Joseph D. Grant County Park. Access trail to the east leads to Hotel Trail.</p>
",37.3368,-121.715,Joseph D. Grant County Park,1421.9,http://www.parkhere.org/,,,
67,72,Barbier Park,NULL,37.9858,-122.485,China Camp State Park,1458.53,http://www.parks.ca.gov/,,,
68,73,Point Pinole,"<p>
	Within this 2,315-acre park, the largest on the northeast bay shore, you&#39;ll find a variety of habitats; meadows, marshlands, rocky beaches, while views of Mt.Tamalpais, the Marin shoreline, and San Pablo and San Francisco Bay stretch before you. Wildlife is abundant and Monarch butterflies migrate to the many eucalyptus groves Nov-Feb.</p>
<p>
	Twelve miles of trails (for the adventurous wheelchair rider many are manageable) crisscross the park; the trail from the parking lot to the fishing pier is paved, albeit hilly.</p>
",37.992,-122.356,Point Pinole Regional Shoreline,1451.52,http://www.ebparks.org/,,,
69,74,China Camp State Park,NULL,38.0033,-122.467,China Camp State Park,1457.46,http://www.parks.ca.gov/,,,
70,75,"Tubbs Island, San Pablo Bay National Wildlife Refuge",NULL,38.1529,-122.436,San Pablo Bay National Wildlife Refuge,1454.75,http://www.fws.gov/data/,,,
71,76,Samuel P. Taylor State Park: Barnabe Mountain,"<p>
	Access to the Cross Marin Trail, Samuel P. Taylor camping and Barnabe Mountain.&nbsp;</p>
<p>
	Easily accessible by Route 68 of the <a href=http://www.marintransit.org/stage.html"" target=""_blank"">West Marin Stage Coach</a>.&nbsp;</p>",,,,,,,,
",38.0196,-122.73,Samuel P. Taylor State Park""",1471.57,http://www.parks.ca.gov/,,,,,,,,,
72,77,Skywalker Easement,NULL,38.0477,-122.622,Lucas Valley Open Space Preserve,1465.52,http://www.marinopenspace.org/,,,
73,78,Gary Giacomini Open Space Preserve,NULL,38.0051,-122.646,Gary Giacomini Open Space Preserve,1467.13,http://www.marinopenspace.org/,,,
74,80,Roy's Redwoods Open Space Preserve,NULL,38.0206,-122.662,Roys Redwoods Open Space Preserve,1467.88,http://www.marinopenspace.org/,,,
75,81,Annadel State Park,NULL,38.452,-122.634,Annadel State Park,1463.56,http://www.parks.ca.gov/,,,
76,82,Shiloh Ranch Regional Park,NULL,38.5255,-122.762,Shiloh Regional Park,1470.08,http://parks.sonomacounty.ca.gov/,,,
77,85,Cascade Canyon Open Space Preserve,<br>,37.9783,-122.613,Marin Municipal Water District Watershed,1465.56,http://www.marinwater.org/,,,
78,86,Bolinas Ridge: Rock Springs,,37.9109,-122.613,Golden Gate National Recreation Area - Marin,1466.02,http://www.nps.gov/,,,
79,87,Mount Tamalpais State Park: Pantoll,"<p>
	A very popular place to start a Mount Tamalpais or Muir woods adventure. There is parking, bathrooms, water, camping and a ranger station here. You can get a park map and info on the area.&nbsp;</p>
<p>
	Tons of amazing hikes from here with the highlights being Muir Woods and ocean views along the Coastal Trail.&nbsp;</p>
<p>
	Link to <a href=http://www.parks.ca.gov/?page_id=471"" target=""_blank"">Mount Tamalpias State Park</a> on www.parks.ca.gov:</p>",,,,,,,,
<p>,,,,,,,,,,,
"	The<a href=""http://www.marintransit.org/stage.html"" target=""_blank""> </a><a href=""http://www.marintransit.org/systemmap_stage.html"" target=""_blank"">Marin Stage Coach route 61</a><a href=""http://www.marintransit.org/stage.html"" target=""_blank""> </a>drops off &nbsp;and picks up here. &nbsp;<br />",,,,,,,,,,,
"	&nbsp;</p>",,,,,,,,,,,
",37.9037,-122.604,Mount Tamalpais State Park""",1465.6,http://www.parks.ca.gov/,,,,,,,,,
80,88,Mount Tamalpais/Marin Municipal Water District: Sky Oaks,NULL,37.9489,-122.597,Marin Municipal Water District Watershed,1464.9,http://www.marinwater.org/,,,
81,89,Mount Tamalpais/Marin Municipal Water District: Bon Tempe,NULL,37.9592,-122.61,Marin Municipal Water District Watershed,1465.5,http://www.marinwater.org/,,,
82,90,Mount Tamalpais/Marin Municipal Water District: Cataract Falls,NULL,37.9367,-122.638,Marin Municipal Water District Watershed,1467.19,http://www.marinwater.org/,,,
83,91,Marin Municipal Water District: Carson Falls,NULL,37.9637,-122.625,Marin Municipal Water District Watershed,1466.29,http://www.marinwater.org/,,,
84,92,Newhall Community Park,NULL,37.9548,-121.976,Newhall Community Park,1431.2,http://www.ci.concord.ca.us/,,,
85,93,Lime Ridge/Treat Blvd,NULL,37.948,-122.009,Lime Ridge Open Space,1433.02,http://www.ci.concord.ca.us/,,,
86,94,Lime Ridge Open Space-Arbolado Dr,NULL,37.9169,-121.987,Lime Ridge Open Space,1432.04,http://www.ci.concord.ca.us/,,,
87,95,Lime Ridge Open Space-Valley Vista Rd,NULL,37.9216,-122,Lime Ridge Open Space,1432.71,http://www.ci.concord.ca.us/,,,
88,96,Lime Ridge Open Space-Navaronne Way,NULL,37.9409,-122.009,Lime Ridge Open Space,1433.1,http://www.ci.concord.ca.us/,,,
89,97,Lime Ridge Open Space-Perada Dr,NULL,37.933,-122.004,Lime Ridge Open Space,1432.88,http://www.ci.concord.ca.us/,,,
90,98,Lime Ridge Open Space-Rock Oak Rd,NULL,37.9396,-122.009,Lime Ridge Open Space,1433.07,http://www.ci.concord.ca.us/,,,
91,99,Mitchell Canyon Staging Area,"<p>
	Great <a href=http://www.savemountdiablo.org/lands_map.html"" target=""_blank"">trail map </a>by Save Mount Diablo -&nbsp;</p>",,,,,,,,
",37.921,-121.941,Mount Diablo State Park""",1429.56,http://www.parks.ca.gov/,,,,,,,,,
92,100,Tamalpais Dr,NULL,37.9267,-121.936,Mount Diablo State Park,1429.23,http://www.parks.ca.gov/,,,
93,101,Greater Lime Ridge,NULL,37.9444,-121.985,Greater Lime Ridge,1431.77,http://www.ci.concord.ca.us/,,,
94,102,Greater Lime Ridge-Ygnacio Valley Rd,NULL,37.9465,-121.992,Greater Lime Ridge,1432.11,http://www.ci.concord.ca.us/,,,
95,103,Boundary Oak GC-Valley Vista Rd,NULL,37.9254,-121.997,Boundary Oak Golf Course,1432.52,http://www.ci.walnut-creek.ca.us/,,,
96,104,Ygnacio Valley Rd,NULL,37.9299,-122.005,Boundary Oak Golf Course,1432.93,http://www.ci.walnut-creek.ca.us/,,,
97,108,Mine Hill Trail / Hacienda Lot,"<p>
	Trailhead to the Mine Hill Trail and Deep Gulch Trail from the Hacienda Parking Lot in Almaden Quicksilver County Park.</p>
",37.174,-121.825,Almaden Quicksilver County Park,1429.42,http://www.parkhere.org/,,,
98,110,Mine Trail / Pueblo Day Use Area,"<p>
	Trailhead to the Mine Trail and Pueblo Trail in Santa Teresa County Park.</p>
",37.2124,-121.79,Santa Teresa County Park,1427.13,http://www.parkhere.org/,,,
99,111,Sierra Azul Open Space Preserve: Woods Trail,NULL,37.1753,-121.864,Mt. Umunhum Area,1431.53,http://www.openspace.org,,,
100,112,Sierra Azul Open Space Preserve: Bald Mountain,NULL,37.1593,-121.876,Mt. Umunhum Area,1432.32,http://www.openspace.org,,,
101,113,Henry W. Coe State Park: Hunting Hollow,NULL,37.076,-121.467,Henry W. Coe State Park,1410.79,http://www.parks.ca.gov/,,,
102,114,Memorial County Park,NULL,37.2755,-122.291,Memorial Park,1453.86,http://www.ci.sanmateo.ca.us/,,,
103,115,McNee Ranch State Park,,37.5539,-122.512,Montara State Beach,1463.43,http://www.parks.ca.gov/,,,
104,116,Pillar Point,NULL,37.5017,-122.497,Pillar Point Bluff,1463.03,http://www.openspacetrust.org/,,,
105,117,Fitzgerald Marine Reserve-Nevada Ave,NULL,37.5241,-122.516,Rancho Corral de Tierra,1463.9,http://www.openspacetrust.org/,,,
106,118,Quarry Park,NULL,37.5033,-122.463,Half Moon Bay State Beach,1461.18,http://www.parks.ca.gov/,,,
107,119,Junction Ranger Station,NULL,37.8666,-121.932,Mount Diablo State Park,1429.46,http://www.parks.ca.gov/,,,
108,120,Eaton Park-Eaton Ave,,37.4844,-122.27,Edgewood Park,1450.85,http://www.ci.pacifica.ca.us/,,,
109,121,Pulgas Ridge Open Space Preserve,NULL,37.4751,-122.283,Pulgas Ridge OSP,1451.62,http://www.openspace.org,,,
110,122,Big Canyon Park-Brittan Ave,NULL,37.4847,-122.282,Pulgas Ridge OSP,1451.47,http://www.openspace.org,,,
111,123,Waterdog Lake Park,NULL,37.5084,-122.319,San Francisco Watershed Lands,1453.28,http://sfwater.org/home.cfm,,,
112,124,Huddart County Park: Into the Woods,NULL,37.4386,-122.294,Huddart Park,1452.55,http://www.ci.sanmateo.ca.us/,,,
113,125,Huddart County Park: All-access Chickadee Trail,NULL,37.44,-122.292,Huddart Park,1452.4,http://www.ci.sanmateo.ca.us/,,,
114,126,Phleger Estate,,37.442,-122.291,Golden Gate National Recreation Area - Phleger,1452.38,http://www.nps.gov/,,,
115,127,Pulgas Water Temple/Crystal Springs Trail,NULL,37.4641,-122.298,San Francisco Watershed Lands,1452.54,http://sfwater.org/home.cfm,,,
116,128,Wunderlich County Park,NULL,37.4111,-122.261,Wunderlich Park,1451.01,http://www.ci.sanmateo.ca.us/,,,
117,129,Edgewood Park and Preserve,NULL,37.4731,-122.278,Edgewood Park,1451.39,http://www.redwoodcity.org/,,,
118,130,Bair Island,,37.4984,-122.224,Bair Island Ecological Reserve,1448.21,http://www.fws.gov/data/,,,
119,131,Stoneman Park-Riple Rouge Rd,NULL,38.0089,-121.921,Stoneman Park,1427.82,http://www.ci.pittsburg.ca.us/,,,
120,132,Black Diamond Way Walk-In Entrance,NULL,37.9543,-121.892,Black Diamond Mines Regional Preserve,1426.63,http://www.ebparks.org/,,,
121,133,Mount Diablo SP-Unnamed St,NULL,37.9042,-121.874,Mount Diablo State Park,1426.04,http://www.parks.ca.gov/,,,
122,134,Three Springs Entry,NULL,37.9125,-121.885,Mount Diablo State Park,1426.58,http://www.parks.ca.gov/,,,
123,135,Park Office Staging Area,NULL,37.9708,-121.863,Black Diamond Mines Regional Preserve,1424.94,http://www.ebparks.org/,,,
124,136,Somersville Townsite Staging Area,"<p>
	This is the end of the road in Black Diamond Mines. And it&#39;s the closest you can get (by car) to the Greathouse Visitor Center, Rose Hill Cemetary and an abundance of picnic tables.&nbsp;</p>
<p>
	Tours are available of the mines from March to November and reservations are necessary. No children under the age of 7 allowed on the tours.&nbsp;</p>
",37.9594,-121.863,Black Diamond Mines Regional Preserve,1425.03,http://www.ebparks.org/,,,
125,137,Trojan Road Staging Area,NULL,38.0393,-121.963,West Pittsburg,1429.89,http://www.ambroserec.org/,,,
126,138,Grizzly Island Wildlife Area,NULL,38.1112,-121.938,Grizzly Island Wildlife Area,1428.08,http://www.dfg.ca.gov/,,,
127,139,Frederickson Lane Entrance,NULL,37.9653,-121.822,Black Diamond Mines,1422.8,http://www.ebparks.org/,,,
128,140,Fredrickson Lane Park Entrance/Kiosk,NULL,37.97,-121.824,Black Diamond Mines,1422.84,http://www.ebparks.org/,,,
129,141,Reseda Way Walk-In Entrance,NULL,37.9786,-121.828,Black Diamond Mines,1423.01,http://www.ebparks.org/,,,
130,142,Grimsby Court Walk-In Entrance,NULL,37.9759,-121.834,Black Diamond Mines,1423.37,http://www.ebparks.org/,,,
131,143,James Donlan Blvd Walk-In Entrance,NULL,37.9797,-121.812,Black Diamond Mines,1422.15,http://www.ebparks.org/,,,
132,144,Brushy Peak Reg. Pres. LARPD,NULL,37.7808,-121.699,Brushy Peak,1417.44,http://www.larpd.dst.ca.us/,,,
133,145,Clifton Court,NULL,37.8375,-121.593,Clifton Court Forebay,1411.26,http://www.water.ca.gov/,,,
134,146,Vasco Road Park Entrance,NULL,37.8028,-121.675,Los Vaqueros Watershed,1415.98,http://www.ccwater.com/,,,
135,148,LosVaqueros: Camino Diablo & Walnut Blvd,NULL,37.8744,-121.699,Los Vaqueros Watershed,1416.72,http://www.ccwater.com/,,,
136,149,Walnut Staging Area,NULL,37.8599,-121.697,Los Vaqueros Watershed,1416.73,http://www.ccwater.com/,,,
137,150,Kellogg Creek Picnic Area,NULL,37.8479,-121.702,Los Vaqueros Watershed,1417.09,http://www.ccwater.com/,,,
138,151,Los Vaqueros Interpretive Ctr,NULL,37.8407,-121.726,Los Vaqueros Watershed,1418.48,http://www.ccwater.com/,,,
139,152,Patra Drive Walk-In Entrance,NULL,37.9496,-122.264,Kennedy Grove Regional Recreation Area,1446.85,http://www.ebparks.org/,,,
140,153,Heavenly Ridge Lane Walk-In Entrance,NULL,37.9684,-122.269,Sobrante Ridge Regional Preserve,1446.99,http://www.ebparks.org/,,,
141,154,Coach Drive Staging Area,NULL,37.9698,-122.259,Sobrante Ridge Regional Preserve,1446.42,http://www.ebparks.org/,,,
142,155,Hidden Springs Court Walk-In Entrance,NULL,37.9741,-122.267,Pinole Valley Park,1446.85,http://www.ci.pinole.ca.us/,,,
143,156,Conestoga Way Walk-In Entrance,NULL,37.9638,-122.256,Sobrante Ridge Regional Preserve,1446.29,http://www.ebparks.org/,,,
144,157,Pinole Valley Park,NULL,37.9807,-122.272,Pinole Valley Park,1447.04,http://www.ci.pinole.ca.us/,,,
145,158,Pinole Park,NULL,37.9814,-122.268,Pinole Valley Park,1446.83,http://www.ci.pinole.ca.us/,,,
146,159,Cesar Chavez Park/Dog Park,,37.8697,-122.32,Cesar Chavez Park,1450.44,http://www.ci.berkeley.ca.us/,,,
147,160,"Alvarado Park, Mcbryde and Martin Ave",NULL,37.9525,-122.322,Wildcat Canyon Regional Park,1449.97,http://www.ebparks.org/,,,
148,161,Little Farm and Education Center,"<p>
	For families with young children, this is a dream. &nbsp;There&#39;s a big field to run in, a playground to climb in, and little animals to pet and chase. &nbsp;The Education Center is an excellent place to learn more about farms, the Wildcat Canyon wildlife, and more. &nbsp;</p>
<p>
	Also from here you can start a short walk to Jewel Lake. &nbsp;The Wildcat Creek Trail goes for miles and ends up in Wildcat Regional Park. A favorite, relatively flat trail for runners.</p>
",37.909,-122.265,Tilden Regional Park,1447.17,http://www.ebparks.org/,,,
149,162,Rifle Range Road Walk-In Entrance,NULL,37.9324,-122.296,Wildcat Canyon Regional Park,1448.69,http://www.ebparks.org/,,,
150,163,San Pablo Dam Road Park Entrance,NULL,37.9446,-122.266,EBMUD,1446.99,http://www.ebmud.com/,,,
151,164,Wildcat Canyon Staging Area,NULL,37.952,-122.318,Wildcat Canyon Regional Park,1449.77,http://www.ebparks.org/,,,
152,165,Clark Road Walk-In Entrance,NULL,37.9622,-122.302,Wildcat Canyon Regional Park,1448.81,http://www.ebparks.org/,,,
153,166,Pinole Shores Drive Trail Staging Area,NULL,38.0099,-122.312,Point Pinole Regional Shoreline,1449.02,http://www.ebparks.org/,,,
154,167,Lake Anza Road Park Entrance,NULL,37.8991,-122.255,Tilden Regional Park,1446.73,http://www.ebparks.org/,,,
155,168,Merry-Go Round Staging Area,NULL,37.9006,-122.256,Tilden Regional Park,1446.74,http://www.ebparks.org/,,,
156,169,Hillside Drive Walk-In Entrance,,37.9481,-122.267,Kennedy Grove Regional Recreation Area,1447.01,http://www.ebparks.org/,,,
157,170,Inspiration Point Parking Lot,NULL,37.9055,-122.244,EBMUD,1446.09,http://www.ebmud.com/,,,
158,171,Isabel Street Staging Area,NULL,37.8981,-122.324,Albany Mudflats Ecological Reserve,1450.46,http://www.parks.ca.gov/,,,
159,172,Rydin Road Staging Area,NULL,37.9031,-122.319,Albany Mudflats Ecological Reserve,1450.18,http://www.parks.ca.gov/,,,
160,174,Canon Drive Park Entrance,NULL,37.9058,-122.268,Tilden Regional Park,1447.37,http://www.ebparks.org/,,,
161,175,Stonewall Road Park Entrance,NULL,37.8626,-122.244,EBMUD,1446.39,http://www.ebmud.com/,,,
162,176,Stonewall Road Walk-In Entrance,NULL,37.862,-122.242,EBMUD,1446.3,http://www.ebmud.com/,,,
163,177,Panoramic Way Walk-In Entrance,NULL,37.8672,-122.239,EBMUD,1446.08,http://www.ebmud.com/,,,
164,178,Norfolk Road Walk-In Entrance,NULL,37.8628,-122.224,EBMUD,1445.32,http://www.ebmud.com/,,,
165,179,De La Veaga Staging Area,"<p>
	Access the De La Veaga Trail through EBMUD property eventually to the Skyline Trail and Tilden Regional Park.</p>
<p>
	Need a permit for this trail. See <a href=http://www.ebmud.com/recreation/trail-use-permit/east-bay-trails"" target=""_blank"">here</a>.&nbsp;</p>",,,,,,,,
",37.8807,-122.188,EBMUD,1443.22,http://www.ebmud.com/
166,180,Steam Train Staging Area""",NULL,37.8801,-122.222,Tilden Regional Park,1445.08,http://www.ebparks.org/,,,,,
167,181,South Park Drive Staging Area at Willows Picnic Area,NULL,37.886,-122.23,Tilden Regional Park,1445.47,http://www.ebparks.org/,,,
168,182,Grizzly Peak Blvd Staging Area at Tower Trail,NULL,37.8815,-122.232,Tilden Regional Park,1445.59,http://www.ebparks.org/,,,
169,183,Lakeside Park-Perkins St,NULL,37.809,-122.256,Lake Merritt water,1447.46,http://www.oaklandnet.com/,,,
170,184,Lakeside Park-Harrison St Ramp,NULL,37.8109,-122.262,Lake Merritt water,1447.78,http://www.oaklandnet.com/,,,
171,185,Main Entrance ,"<p>
	Sibley is a gem of a park. Tucked up at the top of the Oakland hills, it&#39;s a small park with big views. From the top you can see Mt Tam and Mt Diablo and even further. There are several labyrinths in the park that are worth exploring. In the summer it can be hot and dry, in the winter lush and green. There is excellent birding in the pine and eucalyptus forests and you&#39;re sure to spot a cow or two.</p>
",37.8502,-122.202,Sibley Volcanic Regional Preserve,1444.22,http://www.ebparks.org/,,,
172,186,Grizzly Peak Blvd Walk-In Entrance,NULL,37.8516,-122.206,Sibley Volcanic Regional Preserve,1444.42,http://www.ebparks.org/,,,
173,187,Skyline Blvd Park Entrance (Sibley),"<p>
	Sibley has so much: views of the Bay as well as Mt Diablo and Contra Costa County, labyrinths to get spiritual with, an off-leash policy for dog walkers, trees and shade, and wide open spaces to take in the sun. &nbsp;Sitting at the top of the ridge, Sibley can be very hot, windy, foggy or cold depending on the season and time of day. &nbsp;It&#39;s not a big park, but a great one to explore.</p>
",37.8475,-122.199,Sibley Volcanic Regional Preserve,1444.05,http://www.ebparks.org/,,,
174,188,Botanic Garden Staging Area near South Park Drive,NULL,37.8926,-122.243,Tilden Regional Park,1446.12,http://www.ebparks.org/,,,
175,189,South Park Drive Staging Area at Padre Picnic Area,NULL,37.889,-122.234,Tilden Regional Park,1445.67,http://www.ebparks.org/,,,
176,190,South Park Drive Staging Area at Big Springs Trail,NULL,37.8904,-122.237,Tilden Regional Park,1445.8,http://www.ebparks.org/,,,
177,191,Golf Course Entrance,NULL,37.8872,-122.246,Tilden Regional Park,1446.32,http://www.ebparks.org/,,,
178,192,Central Park Drive Park Entrance,NULL,37.896,-122.256,Tilden Regional Park,1446.78,http://www.ebparks.org/,,,
179,193,Shasta Road Park Entrance,NULL,37.8912,-122.249,Tilden Regional Park,1446.46,http://www.ebparks.org/,,,
180,194,Brazil Building Staging Area,NULL,37.8936,-122.245,Tilden Regional Park,1446.24,http://www.ebparks.org/,,,
181,195,Golf Course Drive Staging Area,NULL,37.8833,-122.245,Tilden Regional Park,1446.31,http://www.ebparks.org/,,,
182,196,Frontage Road Staging Area at University Avenue,NULL,37.8655,-122.305,The Brickyard,1449.69,http://www.parks.ca.gov/,,,
183,197,Aquatic Park-Bolivar Dr 1,,37.8646,-122.302,Aquatic Park,1449.49,http://www.ci.berkeley.ca.us/,,,
184,198,Aquatic Park-Bolivar Dr 2,NULL,37.8515,-122.296,The Brickyard,1449.32,http://www.parks.ca.gov/,,,
185,199,Wellesley Drive Walk-In Entrance,NULL,37.9125,-122.153,Russell Tree Farm  Lafayette,1441.11,http://www.universityofcalifornia.edu/,,,
186,200,Hiddenbrooke Trail,NULL,38.1628,-122.197,Sky Valley Open Space,1441.76,http://www.ci.vallejo.ca.us/GovSite/,,,
187,201,EBMUD-Mt View Ln,NULL,37.8832,-122.131,EBMUD,1440.1,http://www.ebmud.com/,,,
188,202,Monticello Road Walk-In Entrance,NULL,37.9035,-122.125,Briones Regional Park,1439.61,http://www.ebparks.org/,,,
189,203,Springhill Road Walk-In Entrance,NULL,37.9153,-122.122,Briones Regional Park,1439.41,http://www.ebparks.org/,,,
190,204,Wallin Drive Walk-In Entrance,NULL,37.9967,-122.137,Carquinez Strait Regional Shoreline,1439.6,http://www.ebparks.org/,,,
191,205,F Street Walk-In Entrance,NULL,38.0018,-122.137,Carquinez Strait Regional Shoreline,1439.58,http://www.ebparks.org/,,,
192,206,Mt. Wanda-Alhambra Valley Rd,NULL,37.978,-122.127,Mt. Wanda,1439.19,http://www.nps.gov/,,,
193,207,Lafayette Ridge Staging Area,NULL,37.9064,-122.101,Briones Regional Park,1438.29,http://www.ebparks.org/,,,
194,208,Briones Road Staging Area,NULL,37.9541,-122.135,Briones Regional Park,1439.83,http://www.ebparks.org/,,,
195,210,Acalanes Ridge Open Space-Piper Ridge Ct,NULL,37.9154,-122.096,Acalanes Ridge Open Space,1437.98,http://www.ci.walnut-creek.ca.us/,,,
196,211,Alhambra Creek Staging Area,NULL,37.958,-122.124,Briones Regional Park,1439.17,http://www.ebparks.org/,,,
197,212,Toyon Road Walk-In Entrance,NULL,37.9353,-122.11,Briones Regional Park,1438.6,http://www.ebparks.org/,,,
198,213,Gloria Terrace Parking Lot,NULL,37.9394,-122.101,Briones Regional Park,1438.09,http://www.ebparks.org/,,,
199,214,Acalanes Ridge Open Space-Alfred Ave,NULL,37.9115,-122.08,Acalanes Ridge Open Space,1437.12,http://www.ci.walnut-creek.ca.us/,,,
200,215,Acalanes Ridge Open Space-Camino Verde Cir,NULL,37.916,-122.092,Acalanes Ridge Open Space,1437.73,http://www.ci.walnut-creek.ca.us/,,,
201,216,Acalanes Ridge Open Space-Ramsay Cir,NULL,37.9176,-122.085,Acalanes Ridge Open Space,1437.34,http://www.ci.walnut-creek.ca.us/,,,
202,217,Sunrise Ridge Drive Walk-In Entrance,NULL,37.9512,-122.116,Briones Regional Park,1438.82,http://www.ebparks.org/,,,
203,218,Tavan Estates Drive Walk-In Entrance,NULL,37.9581,-122.117,Briones Regional Park,1438.83,http://www.ebparks.org/,,,
204,219,Panorama Drive Walk-In Entrance,NULL,37.9094,-122.141,Briones Regional Park,1440.47,http://www.ebparks.org/,,,
205,220,Foster Street Walk-In Entrance,NULL,38.0166,-122.144,Martinez Regional Shoreline,1439.85,http://www.ebparks.org/,,,
206,221,N. Court Street Staging Area,NULL,38.0208,-122.137,Martinez Regional Shoreline,1439.43,http://www.ebparks.org/,,,
207,222,Park Office Staging Area at Pine Tree Trail,NULL,37.9644,-122.14,Briones Regional Park,1440.04,http://www.ebparks.org/,,,
208,223,Alhambra Park,NULL,38.0175,-122.139,Martinez Regional Shoreline,1439.6,http://www.ebparks.org/,,,
209,224,Joe Dimaggio Drive Staging Area,NULL,38.0208,-122.134,Martinez Regional Shoreline,1439.28,http://www.ebparks.org/,,,
210,225,Howe Homestead Park - Kovar Trail,,37.8998,-122.05,Howe Homestead Park,1435.57,http://www.ci.walnut-creek.ca.us/,,,
211,226,Rankin Park Walk-In Entrance,NULL,38.0155,-122.145,Carquinez Strait Regional Shoreline,1439.91,http://www.ebparks.org/,,,
212,227,Gustin Ranch Open Space,NULL,37.9873,-122.153,Sky Ranch,1440.56,http://www.muirheritagelandtrust.org/,,,
213,228,Pine Meadow GC-Center Ave,NULL,37.9836,-122.091,Hidden Lakes Park,1437.22,http://www.cityofmartinez.org/,,,
214,229,Hidden Lakes Park-Silverlake Way,NULL,37.9821,-122.087,Hidden Lakes Park,1437.01,http://www.cityofmartinez.org/,,,
215,230,Nejedly Staging Area,NULL,38.0181,-122.147,Carquinez Strait Regional Shoreline,1440.03,http://www.ebparks.org/,,,
216,231,Hidden Lakes Park,NULL,37.9772,-122.09,Hidden Lakes Park,1437.22,http://www.cityofmartinez.org/,,,
217,232,Reservoir Street Walk-In Entrance,NULL,38.0436,-122.188,Carquinez Strait Regional Shoreline,1442.08,http://www.ebparks.org/,,,
218,233,Winslow Street Walk-In Entrance,NULL,38.0541,-122.208,Carquinez Strait Regional Shoreline,1443.07,http://www.ebparks.org/,,,
219,234,Prospect Avenue Walk-In Entrance,NULL,38.0458,-122.186,Carquinez Strait Regional Shoreline,1441.94,http://www.ebparks.org/,,,
220,235,Waterbird Way Staging Area,NULL,38.0254,-122.099,Point Edith Wildlife Area,1437.34,http://www.slc.ca.gov/,,,
221,236,Bull Valley Staging Area,NULL,38.0491,-122.197,Carquinez Strait Regional Shoreline,1442.53,http://www.ebparks.org/,,,
222,237,Carquinez Scenic Drive Walk-In Entrance to District Service Road,NULL,38.0411,-122.187,Carquinez Strait Regional Shoreline,1442.02,http://www.ebparks.org/,,,
223,238,Crockett Blvd Staging Area,NULL,38.0485,-122.222,Crockett Hills Regional Park,1443.84,http://www.ebparks.org/,,,
224,239,Point Edith State Wildlife Area,NULL,38.0346,-122.07,Point Edith Wildlife Area,1435.72,http://www.slc.ca.gov/,,,
225,240,Canyon Oaks Drive Park Entrance,NULL,37.7754,-122.146,Leona Heights Regional Open Space,1441.73,http://www.ebparks.org/,,,
226,241,Parkridge Drive Walk-In Entrance,NULL,37.7904,-122.144,Anthony Chabot Regional Park,1441.51,http://www.ebparks.org/,,,
227,242,Merritt College Walk-In Entrance,NULL,37.7877,-122.164,Leona Heights Regional Open Space,1442.6,http://www.ebparks.org/,,,
228,243,Redwood Road Walk-In Entrance - Soaring Hawk Trail (north),NULL,37.7737,-122.121,Anthony Chabot Regional Park,1440.36,http://www.ebparks.org/,,,
229,244,Bort Meadow Staging Area,NULL,37.7775,-122.125,Anthony Chabot Regional Park,1440.57,http://www.ebparks.org/,,,
230,245,Skyline Blvd Walk-In Entrance,NULL,37.8218,-122.187,Joaquin Miller Park,1443.61,http://www.oaklandnet.com/,,,
231,246,Redwood Bowl Staging Area,NULL,37.8168,-122.18,Joaquin Miller Park,1443.26,http://www.oaklandnet.com/,,,
232,247,Skyline Blvd Park Entrance (Roberts),NULL,37.8129,-122.176,Joaquin Miller Park,1443.06,http://www.oaklandnet.com/,,,
233,248,Chabot Equestrian Center,NULL,37.7722,-122.129,Anthony Chabot Regional Park,1440.85,http://www.ebparks.org/,,,
234,249,Dimond Canyon Park,,37.8183,-122.207,Joaquin Miller Park,1444.69,http://www.oaklandnet.com/,,,
235,250,Sunset Trail/Fernwood Picnic Site,"<p>
	AC Transit 339 which runs to and from Fruitvale BART stops at this trailhead. Lots of hiking, trail running, picnicing accessible from here. Jump on the Sunset trail from here to start your adventure.&nbsp;</p>
",37.8099,-122.183,Joaquin Miller Park,1443.49,http://www.oaklandnet.com/,,,
236,251,Big Bear Staging Area,NULL,37.7989,-122.154,Anthony Chabot Regional Park,1441.98,http://www.ebparks.org/,,,
237,252,Main Park Staging Area,NULL,37.8162,-122.05,"Las Trampas Regional Wilderness
",1436.21,http://www.ebparks.org/,,,
238,253,Skyline Blvd Park Entrance (Huckleberry),NULL,37.8428,-122.195,"Huckleberry Botanic Regional Preserve
",1443.9,http://www.ebparks.org/,,,
239,254,Pinehurst Road Walk-In Entrance,NULL,37.8408,-122.185,"Huckleberry Botanic Regional Preserve
",1443.35,http://www.ebparks.org/,,,
240,255,Pinehurst Gate Staging Area,NULL,37.8012,-122.136,EBMUD,1440.99,http://www.ebmud.com/,,,
241,256,Bollinger Canyon Road Park Entrance,NULL,37.8121,-122.044,"Las Trampas Regional Wilderness
",1435.91,http://www.ebparks.org/,,,
242,257,Shoreline Park,,37.7479,-122.252,Shoreline Park,1447.7,http://www.ci.alameda.ca.us/,,,
243,258,Wayside Staging Area,NULL,37.8043,-122.146,Redwood Regional Park,1441.51,http://www.ebparks.org/,,,
244,259,Canyon Meadow Staging Area,NULL,37.8065,-122.148,Redwood Regional Park,1441.59,http://www.ebparks.org/,,,
245,260,Skyline Gate Staging Area,NULL,37.8318,-122.185,Redwood Regional Park,1443.43,http://www.ebparks.org/,,,
246,261,Skyline Blvd Parking/Trudeau Center,NULL,37.8034,-122.177,Redwood Regional Park,1443.21,http://www.ebparks.org/,,,
247,262,Redwood Equestrian Arena Walk-In Entrance,NULL,37.8002,-122.171,Redwood Regional Park,1442.88,http://www.ebparks.org/,,,
248,263,Redwood Road Walk-In Entrance at Monteiro Trail,NULL,37.8066,-122.167,Redwood Regional Park,1442.63,http://www.ebparks.org/,,,
249,264,MacDonald Staging Area,NULL,37.7983,-122.151,Redwood Regional Park,1441.82,http://www.ebparks.org/,,,
250,265,Redwood Road Park Entrance,,37.8003,-122.145,Redwood Regional Park,1441.51,http://www.ebparks.org/,,,
251,266,Niles Staging Area,NULL,37.5781,-121.969,Alameda Creek Regional Trail,1433.69,http://www.ebparks.org/,,,
252,267,May Road Park Entrance,NULL,37.6062,-122.02,Dry Creek/Pioneer Regional Park,1436.21,http://www.ebparks.org/,,,
253,268,Garin Avenue Park,NULL,37.6293,-122.029,Garin/Dry Creek Regional Park,1436.53,http://www.ebparks.org/,,,
254,269,Thorup Lane Walk-In Entrance at Ziele Creek Drive,NULL,37.6473,-122.037,Garin/Dry Creek Regional Park,1436.8,http://www.ebparks.org/,,,
255,270,Augustin-Bernal Park,NULL,37.6366,-121.905,Augustin Bernal Park,1429.71,http://www.ci.pleasanton.ca.us/,,,
256,271,Main Parking Lot,NULL,37.6707,-121.844,Shadow Cliffs Regional Recreation Area,1426.13,http://www.ebparks.org/,,,
257,272,Stanley Blvd Walk-In Entrance,NULL,37.6713,-121.849,Shadow Cliffs Regional Recreation Area,1426.4,http://www.ebparks.org/,,,
258,273,Future Park (Dougherty Hills Dev.),NULL,37.718,-121.914,Dougherty Hills Open Space,1429.6,http://www.ci.dublin.ca.us/,,,
259,274,Brigadoon Way Walk-In Entrance,NULL,37.7025,-121.963,Dublin Hills,1432.36,http://www.ebparks.org/,,,
260,275,Ursa Way Walk-In Entrance,NULL,37.6885,-122.051,Five Canyons trail corridor,1437.26,http://www.ebparks.org/,,,
261,276,Gordon E. Oliver Eden Shores Park,NULL,37.6115,-122.097,Eden Landing Ecological Reserve,1440.39,http://www.dfg.ca.gov/,,,
262,280,Beard Staging Area,NULL,37.587,-122.039,Alameda Creek Regional Trail,1437.42,http://www.ebparks.org/,,,
263,281,Alameda Creek Trail Walk-In Entrance (west),NULL,37.567,-122.001,Alameda Creek Quarries Reg. Rec. Area,1435.53,http://www.ebparks.org/,,,
264,282,Alameda Creek Trail Walk-In Entrance (east),NULL,37.5682,-121.99,Alameda Creek Quarries Reg. Rec. Area,1434.9,http://www.ebparks.org/,,,
265,283,Isherwood Staging Area,NULL,37.5726,-122.014,Alameda Creek Quarries Reg. Rec. Area,1436.16,http://www.ebparks.org/,,,
266,284,Palo Alto Baylands,,37.4575,-122.108,Baylands Preserve,1442.26,http://www.cityofpaloalto.org/com,,,
267,285,Shoreline at Mountain View,,37.4326,-122.088,Mountain View Shoreline Park,1441.36,http://www.ci.mtnview.ca.us/,,,
268,286,Ravenswood Open Space Preserve,,37.4759,-122.124,Ravenswood OSP,1442.98,http://www.openspace.org,,,
269,287,Fremont Central Park-Padre Pky,NULL,37.5474,-121.969,Fremont Central Park,1433.94,http://www.ci.fremont.ca.us/,,,
270,288,Fremont Central Park-Stevenson Blvd,NULL,37.5574,-121.962,Fremont Central Park,1433.47,http://www.ci.fremont.ca.us/,,,
271,289,Bayfront Park Recreation Area-Marsh Rd,,37.4902,-122.177,Bayfront Park Recreation Area,1445.74,http://www.menlopark.org/,,,
272,290,Breakwater Avenue Walk-In Entrance,NULL,37.6236,-122.136,Hayward Regional Shoreline,1442.37,http://www.ebparks.org/,,,
273,291,Baumberg Tract,,37.6189,-122.124,Eden Landing Ecological Reserve,1441.79,http://www.dfg.ca.gov/,,,
274,292,Tennessee Valley,"<p>
	Tennessee Valley is an amazing offshoot of the Marin Headlands, with hiking trails that suit the whole family. The Tennessee Valley Trail is mostly level; it begins at the parking area and travels 1.7 miles to Tennessee Beach. For the more adventurous hiker, there are a number of other trails leading into the hills above Tennessee Valley.</p>
<div>
	With it&#39;s many trails, Tennessee Valley is well suited for the whole family. The area contains a bevy of wildlife; from mighty raptors to common swallows, the birds of the valley will keep your eyes on the skies. The skies are not the only place to view wildlife; the valley is teeming with deer, coyote, and on an occasion you might even see a bobcat.</div>
<div>
	&nbsp;</div>
<div>
	For more information please contact the Marin Headlands Visitor Center at (415) 331-1540</div>
<div>
	&nbsp;</div>
<div>
	More information from the National Park Service <a href=http://www.nps.gov/goga/planyourvisit/tennessee_valley.htm"" target=""_blank"">here</a>.&nbsp;</div>",,,,,,,,
",37.8608,-122.536,Golden Gate National Recreation Area - Marin""",1462.23,http://www.nps.gov/,,,,,,,,,
275,293,Golden Gate Bridge (Marin),,37.8323,-122.482,Golden Gate National Recreation Area - Marin,1459.54,http://www.nps.gov/,,,
276,294,Fort Baker,,37.8361,-122.475,Golden Gate National Recreation Area - Marin,1459.11,http://www.nps.gov/,,,
277,297,Twin Peaks,NULL,37.75,-122.447,Golden Gate Park,1458.29,http://www.sfgov.org/,,,
278,298,Crissy Field - East Beach,"<p>
	Crissy Field is a stunning place to walk or bike on a flat, hard-packed promenade with iconic views of the Bay and Golden Gate Bridge. A wide, fully accessible trail winds through Crissy Field between Marina Green and Fort Point. See more from GGNPC <a href=http://www.parksconservancy.org/visit/park-sites/crissy-field.html"" target=""_blank"">here</a>. &nbsp;</p>",,,,,,,,
<p>,,,,,,,,,,,
"	<a href=""http://www.presidio.gov/explore/Pages/crissy-field-picnic-east-beach-west-bluffs.aspx"" target=""_blank"">More info on the Presido Trust site</a>.&nbsp;</p>",,,,,,,,,,,
",37.8055,-122.453,Golden Gate National Recreation Area - San Francisco""",1458.13,http://www.nps.gov/,,,,,,,,,
279,299,Lobos Creek Trail,,37.7885,-122.482,Presidio,1459.87,http://www.nps.gov/,,,
280,300,Inspiration Point,"<p>
	Amazing views of Angel Island and the San Francisco Bay from here!</p>
<p>
	<a href=http://www.presidio.gov/directions/"" target=""_blank"">Great maps of Presidio</a></p>",,,,,,,,
<p>,,,,,,,,,,,
"	<a href=""http://www.presidio.gov/NR/rdonlyres/A26635BC-AE79-4EDA-846B-BF5700B926A5/0/PresidioTrailsMap_SEPT2010.pdf"" target=""_blank"">Trail Map of Presidio</a></p>",,,,,,,,,,,
<p>,,,,,,,,,,,
"	<a href=""http://www.presidio.gov/NR/rdonlyres/9DE6832B-2937-4456-9D19-0AE5C2E4FAF9/0/PresidioBikeMapPRINTABLE.pdf"" target=""_blank"">Bike Trail Map of Presidio</a></p>",,,,,,,,,,,
<p>,,,,,,,,,,,
"	Bay Hiker has great photos and info on this <a href=""http://bahiker.com/sfhikes/inspoint.html"" target=""_blank"">here</a>.</p>",,,,,,,,,,,
",37.7921,-122.458,Presidio,1458.55,http://www.nps.gov/
281,301,Rodeo Beach/Fort Cronkhite""","<p>
	From the parking lot at the end of Mitchell Road is a<br />
	two-mile paved loop that climbs steeply on the Coastal Trail for .75 mile to Battery Townsley, then returns to Fort Cronkhite on Old Bunker Road passing the entrance to the Marine Mammal Center.<br />
	<br />
	Barrier Free Access: Wheelchair users may require<br />
	assistance on the steep climb to Battery Townsley. From here the Coastal Trail leading to the left is inaccessible but just past the Battery turn right onto paved Old Bunker Road which has a gentle grade but is worn in places. It leads downhill one mile to a locked vehicle gate. If locked, you may have to retrace your route.</p>
",37.8322,-122.54,Golden Gate National Recreation Area - Marin,1462.65,http://www.nps.gov/,,,,,
282,302,Bunker Road,"<p>
	Rodeo Valley winds through the heart of the Marin Headlands and is edged by grassy, wind-swept hillsides. The valley and lagoon offer habitat for birds, butterflies, and bobcats&mdash;as well as miles of backcountry and coastal trails.</p>
<p>
	See more information <a href=http://www.parksconservancy.org/visit/park-sites/rodeo-lagoon-valley.html"" target=""_blank"">here </a>from the Parks Conservancy.</p>",,,,,,,,
",37.8325,-122.512,Golden Gate National Recreation Area - Marin""",1461.17,http://www.nps.gov/,,,,,,,,,
283,303,Palomarin,,37.9342,-122.747,Point Reyes National Seashore,1473.14,http://www.nps.gov/,,,
284,304,Five Brooks,,37.9974,-122.758,Point Reyes National Seashore,1473.25,http://www.nps.gov/,,,
285,305,Sky,,38.0549,-122.838,Point Reyes National Seashore,1477.17,http://www.nps.gov/,,,
286,306,Morgan Territory Road Walk-In Entrance at the Highland Ridge Trail,NULL,37.8356,-121.811,Morgan Territory Regional Preserve,1423.08,http://www.ebparks.org/,,,
287,307,Morgan Territory Road Walk-In Entrance at Raven Trail,NULL,37.8393,-121.817,Morgan Territory Regional Preserve,1423.41,http://www.ebparks.org/,,,
288,308,Morgan Territory Road Walk-In Entrance at Miwok Trail,NULL,37.8265,-121.802,Morgan Territory Regional Preserve,1422.68,http://www.ebparks.org/,,,
289,309,Morgan Territory Regional Park - Park Entrance,"<p>
	A stunning park! &nbsp;The trails are wide open and long with views of Mt Diablo and the surrounding valleys. &nbsp;</p>
<p>
	This is a great place for kids with big trails, little poison oak, rocks to climb, trees to climb, and so much more. <a href=http://www.goingoutsidekids.com/search/label/Morgan%20Territory"" target=""_blank"">Click here</a> for more about what to do at Morgan Territory with kids.</p>",,,,,,,,
",37.8176,-121.796,Morgan Territory Regional Preserve""",1422.41,http://www.ebparks.org/,,,,,,,,,
290,310,Finley Road Walk-In Entrance,NULL,37.8228,-121.855,Mount Diablo State Park,1425.58,http://www.parks.ca.gov/,,,
291,311,Morgan Ranch/Red Corral,NULL,37.8514,-121.847,Mount Diablo State Park,1424.95,http://www.parks.ca.gov/,,,
292,312,Curry Point,NULL,37.852,-121.925,Mount Diablo State Park,1429.19,http://www.parks.ca.gov/,,,
293,313,County Line Staging Area,NULL,37.7729,-121.74,Los Vaqueros Watershed,1419.74,http://www.ccwater.com/,,,
294,314,"Sugarloaf Recreation Area
-Lariat Ln",NULL,37.8708,-122.035,"Sugarloaf Recreation Area
",1434.98,http://www.ci.walnut-creek.ca.us/,,,
295,315,"Sugarloaf Recreation Area
-Bridle Ln",NULL,37.8697,-122.033,"Sugarloaf Recreation Area
",1434.88,http://www.ci.walnut-creek.ca.us/,,,
296,316,"Sugarloaf Recreation Area
-Grover Ln",NULL,37.8764,-122.039,"Sugarloaf Recreation Area
",1435.18,http://www.ci.walnut-creek.ca.us/,,,
297,317,"Sugarloaf Recreation Area
-Youngs Valley Rd",NULL,37.8764,-122.037,"Sugarloaf Recreation Area
",1435.06,http://www.ci.walnut-creek.ca.us/,,,
298,318,"Sugarloaf Recreation Area
-Roan Ln",NULL,37.8746,-122.035,"Sugarloaf Recreation Area
",1434.95,http://www.ci.walnut-creek.ca.us/,,,
299,319,Danville Blvd Trail Staging Area at Rudgear Road,NULL,37.8789,-122.05,"Sugarloaf Recreation Area
",1435.75,http://www.ci.walnut-creek.ca.us/,,,
300,320,"Shell Ridge Recreation Area
-Sunburst Ct",NULL,37.8756,-122.022,"Shell Ridge Recreation Area
",1434.27,http://www.ci.walnut-creek.ca.us/,,,
301,321,"Shell Ridge Recreation Area
-Benham Ct",NULL,37.8753,-122.015,"Shell Ridge Recreation Area
",1433.89,http://www.ci.walnut-creek.ca.us/,,,
302,322,Las Trampas Road Walk-In Entrance,NULL,37.8442,-122.051,"Las Trampas Regional Wilderness
",1436.07,http://www.ebparks.org/,,,
303,323,South Court Walk-In Entrance,NULL,37.8402,-122.037,"Las Trampas Regional Wilderness
",1435.34,http://www.ebparks.org/,,,
304,324,Ringtail Cat Staging Area,NULL,37.837,-122.032,"Las Trampas Regional Wilderness
",1435.08,http://www.ebparks.org/,,,
305,325,Kuss Road Walk-In Entrance,NULL,37.8256,-122.028,"Las Trampas Regional Wilderness
",1434.95,http://www.ebparks.org/,,,
306,326,Childers Lane Walk-In Entrance,NULL,37.8691,-121.997,Diablo Foothills Regional Park,1432.97,http://www.ebparks.org/,,,
307,327,Livorna Staging Area,NULL,37.8708,-122.01,Diablo Foothills Regional Park,1433.65,http://www.ebparks.org/,,,
308,328,Shell Ridge Recreation Area Jeep Trl 1,NULL,37.8942,-122.033,"Shell Ridge Recreation Area
",1434.7,http://www.ci.walnut-creek.ca.us/,,,
309,329,Shell Ridge Recreation Area Jeep Trl 2,NULL,37.9053,-122.015,"Shell Ridge Recreation Area
",1433.64,http://www.ci.walnut-creek.ca.us/,,,
310,330,"Shell Ridge Recreation Area
-Whitecliff Way",NULL,37.8866,-122.018,"Shell Ridge Recreation Area
",1433.96,http://www.ci.walnut-creek.ca.us/,,,
311,331,"Shell Ridge Recreation Area
-Marshall Dr",NULL,37.902,-122.033,"Shell Ridge Recreation Area
",1434.68,http://www.ci.walnut-creek.ca.us/,,,
312,332,"Shell Ridge Recreation Area
",NULL,37.9047,-122.033,"Shell Ridge Recreation Area
",1434.66,http://www.ci.walnut-creek.ca.us/,,,
313,333,Shell Ridge Recreation Area  Rockspring Pl 1,NULL,37.8893,-122.019,"Shell Ridge Recreation Area
",1433.99,http://www.ci.walnut-creek.ca.us/,,,
314,334,Shell Ridge Recreation Area  Rockspring Pl 2,NULL,37.8876,-122.014,"Shell Ridge Recreation Area
",1433.76,http://www.ci.walnut-creek.ca.us/,,,
315,335,"Shell Ridge Recreation Area
-Deer Valley Ln",NULL,37.9062,-122.02,"Shell Ridge Recreation Area
",1433.95,http://www.ci.walnut-creek.ca.us/,,,
316,337,Stonegate Drive Walk-In Entrance,NULL,37.8766,-122.002,Diablo Foothills Regional Park,1433.14,http://www.ebparks.org/,,,
317,338,Diablo Foothills Regional Park-Dorchester Ln,NULL,37.8781,-122.005,Diablo Foothills Regional Park,1433.31,http://www.ebparks.org/,,,
318,339,Borges Ranch Road Trail Staging Area,NULL,37.892,-122.002,Diablo Foothills Regional Park,1433.07,http://www.ebparks.org/,,,
319,340,Castle Rock Road Staging Area,NULL,37.8939,-121.994,Diablo Foothills Regional Park,1432.61,http://www.ebparks.org/,,,
320,341,Orchard Staging Area,NULL,37.8965,-121.998,Diablo Foothills Regional Park,1432.79,http://www.ebparks.org/,,,
321,342,Mount Diablo SP-GateNRd,,37.8852,-121.978,Mount Diablo State Park,1431.78,http://www.parks.ca.gov/,,,
322,343,Muir Woods Road,,37.8863,-122.568,Mount Tamalpais State Park,1463.8,http://www.parks.ca.gov/,,,
323,344,Alto Bowl Open Space Preserve,NULL,37.9162,-122.526,Camino Alto Open Space Preserve,1461.26,http://www.marinopenspace.org/,,,
324,345,Camino Alto Open Space Preserve,NULL,37.9098,-122.53,Camino Alto Open Space Preserve,1461.54,http://www.marinopenspace.org/,,,
325,346,Ring Mountain Open Space Preserve,NULL,37.9209,-122.494,Ring Mountain Preserve,1459.53,http://www.marinopenspace.org/,,,
326,347,Coal Creek Open Space Preserve,NULL,37.3245,-122.204,Coal Creek OSP,1448.68,http://www.openspace.org,,,
327,348,Hidden Villa,NULL,37.3537,-122.157,Hidden Villa (Duveneck Ranch),1445.86,http://www.hiddenvilla.org,,,
328,350,Arastradero Preserve,NULL,37.3871,-122.174,Arastradero Preserve,1446.5,http://www.cityofpaloalto.org/com,,,
329,351,Long Ridge Open Space Preserve,NULL,37.2902,-122.154,Long Ridge OSP,1446.27,http://www.openspace.org,,,
330,352,Coal Mine Ridge,NULL,37.3644,-122.215,Coal Mine Ridge,1448.92,http://www.portolavalley.net/,,,
331,353,Rancho San Antonio Open Space Preserve: Out-and-back through the preserve's  western parcel,NULL,37.3504,-122.135,Rancho San Antonio OSP,1444.67,http://www.openspace.org,,,
332,354,Rancho San Antonio Open Space Preserve:Black Mountain,NULL,37.3504,-122.135,Rancho San Antonio OSP,1444.67,http://www.openspace.org,,,
333,355,Russian Ridge Open Space Preserve,NULL,37.3154,-122.189,Russian Ridge OSP,1447.92,http://www.openspace.org,,,
334,356,Skyline Ridge Open Space Preserve: All-access trail around Alpine Pond,NULL,37.3153,-122.188,Russian Ridge OSP,1447.89,http://www.openspace.org,,,
335,357,Los Trancos Open Space Preserve,NULL,37.3262,-122.18,Monte Bello OSP,1447.33,http://www.openspace.org,,,
336,358,Monte Bello Open Space Preserve,NULL,37.3257,-122.179,Monte Bello OSP,1447.3,http://www.openspace.org,,,
337,359,Skyline Ridge Open Space Preserve: Two ponds and the Bay Area Ridge Trail,NULL,37.3123,-122.177,Skyline Ridge OSP - Big Dipper Ranch Area,1447.31,http://www.openspace.org,,,
338,360,Skyline Ridge Open Space Preserve: All-access trail around Horseshoe Lake,NULL,37.3097,-122.176,Skyline Ridge OSP - Big Dipper Ranch Area,1447.28,http://www.openspace.org,,,
339,361,Sam McDonald County Park,NULL,37.2965,-122.266,Sam McDonald Park,1452.28,http://www.ci.sanmateo.ca.us/,,,
340,362,Windy Hill Open Space Preserve: A Loop around Sausal Pond,NULL,37.3752,-122.224,Windy Hill OSP,1449.28,http://www.openspace.org,,,
341,363,Windy Hill Open Space Preserve: Spring Ridge/Hamms Gulch Loop,NULL,37.3753,-122.223,Windy Hill OSP,1449.27,http://www.openspace.org,,,
342,364,Windy Hill Open Space Preserve: Lost Trail,NULL,37.3616,-122.247,Windy Hill OSP,1450.68,http://www.openspace.org,,,
343,365,Stanford Avenue Park Entrance,NULL,37.5045,-121.908,Mission Peak Regional Preserve,1431.01,http://www.ebparks.org/,,,
344,366,Fremont Hills Open Space,NULL,37.4932,-121.905,Rancho Higuera Park,1430.92,http://www.ci.fremont.ca.us/,,,
345,367,Tomales Bay State Park,,38.1314,-122.891,Tomales Bay State Park,1479.49,http://www.parks.ca.gov/,,,
346,368,Estero,,38.0815,-122.914,Point Reyes National Seashore,1481.1,http://www.nps.gov/,,,
347,369,Tomales Point,,38.1891,-122.954,Point Reyes National Seashore,1482.51,http://www.nps.gov/,,,
348,370,Marshall Beach,,38.1542,-122.92,Point Reyes National Seashore,1480.89,http://www.nps.gov/,,,
349,371,Kehoe Beach,,38.1527,-122.939,Point Reyes National Seashore,1481.95,http://www.nps.gov/,,,
350,372,Abbotts Lagoon,"<p>
	Abbotts Lagoon is a dune-sheltered freshwater lagoon on the north side of the Point Reyes Peninsula. A 2-mile, out and back decomposed granite and dirt trail leads to a small beach. Look for coots, western grebes, and quail.</p>
<p>
	Barrier Free Access: The first .5 mile may be accessible to some wheelchair rider&#39;s, although erosion from a wet winter may make it impassable.</p>
",38.1235,-122.936,Point Reyes National Seashore,1481.96,http://www.nps.gov/,,,
351,373,Old St. Hilary's Open Space Preserve,NULL,37.8877,-122.456,Old St. Hilary's OSP,1457.68,http://www.marinopenspace.org/,,,
352,374,Tiburon Uplands Nature Preserve-Paradise Dr 2,NULL,37.8892,-122.449,Old St. Hilary's OSP,1457.32,http://www.marinopenspace.org/,,,
353,375,Camp Ohlone Main Entrance,NULL,37.4906,-121.747,Camp Ohlone,1422.32,http://www.ebparks.org/,,,
354,376,Sycamore Grove Park-Wetmore Rd 1,NULL,37.645,-121.782,Sycamore Grove Park,1422.98,http://www.larpd.dst.ca.us/,,,
355,377,Veterans Park-Arroyo Rd,NULL,37.625,-121.757,Del Valle Regional Park,1421.76,http://www.ebparks.org/,,,
356,378,Arroyo Road Staging Area,NULL,37.6195,-121.753,Del Valle Regional Park,1421.61,http://www.ebparks.org/,,,
357,379,Bear Valley,"<p>
	The park&#39;s primary Visitor Center provides an orientation of the park&#39;s roads, trails, and human and natural history. The Bear Valley Visitor Center was designed to blend in with the historically significant ranching culture of this area and is located in the heart of the Olema Valley. The interior exhibit space provides a glimpse of the diverse ecosystems and cultural heritage of the park and includes a seismograph, touch table, auditorium, and book sales area. Read more on the <a href=http://www.nps.gov/pore/planyourvisit/visitorcenters.htm"" target=""_blank"">NPS site</a>.<br />",,,,,,,,
"	Route 68 of the <a href=""http://www.marintransit.org/stage.html"" target=""_blank"">West Marin Stage Coach</a> drops off here.&nbsp;</p>",,,,,,,,,,,
",38.0397,-122.8,Point Reyes National Seashore""",1475.21,http://www.nps.gov/,,,,,,,,,
358,380,Rockville Hills Regional Park,NULL,38.2485,-122.133,Rockville Hills Park,1437.74,http://www.ci.fairfield.ca.us/,,,
359,381,Glen Canyon,NULL,37.7366,-122.442,McLaren Park,1458.09,http://www.sfgov.org/,,,
360,382,San Bruno Mountain County and  State Park: All-access Loop,NULL,37.6971,-122.434,San Bruno Mountain State Park,1458,http://www.parks.ca.gov/,,,
361,383,San Bruno Mountain County and State Park: Bog Loop,NULL,37.6971,-122.434,San Bruno Mountain State Park,1458,http://www.parks.ca.gov/,,,
362,384,San Bruno Mountain County and State Park: Summit Loop,,37.6961,-122.434,San Bruno Mountain Park,1458,http://www.ci.sanmateo.ca.us/,,,
363,385,San Bruno Mountain County and State Park: Saddle Loop,NULL,37.6969,-122.434,San Bruno Mountain State Park,1457.98,http://www.parks.ca.gov/,,,
364,387,McLaren Park,,37.7223,-122.423,McLaren Park,1457.18,http://www.sfgov.org/,,,
365,388,Coyote Point Recreation Area,,37.5885,-122.329,Coyote Point County Park,1453.16,http://www.ci.sanmateo.ca.us/,,,
366,389,Otis Drive Park Entrance,,37.7633,-122.272,Crown Memorial Regional Shoreline,1448.67,http://www.parks.ca.gov/,,,
367,390,McKay Avenue Staging Area,NULL,37.7696,-122.278,Crown Memorial Regional Shoreline,1448.95,http://www.parks.ca.gov/,,,
368,392,Fremont Older Open Space Preserve,NULL,37.286,-122.059,Fremont Older OSP,1441.13,http://www.openspace.org,,,
369,393,Picchetti Ranch Open Space Preserve,NULL,37.2945,-122.091,Picchetti Ranch OSP,1442.81,http://www.openspace.org,,,
370,395,Main Entrance - Ragle Ranch Rd,"<p>
	See more at <a href=http://parks.sonomacounty.ca.gov/Get_Outdoors/Parks/Ragle_Ranch_Regional_Park.aspx"" target=""_blank"">Sonoma County Regional Parks.&nbsp;</a></p>",,,,,,,,
<p>,,,,,,,,,,,
"	<span style=""font-family: arial; font-size: small;"">Ragle Ranch Regional Park contains 3.56 miles of trail over gently rolling terrain that is comprised of the flood plain of Atascadero Creek. The Hilltop Trail offers views across the watershed towards western Sonoma County", while the Blackberry Trail offers a loop around the perimeter of the meadows.&nbsp;</span></p>,,,,,,,,,,
",38.4057,-122.846,Ragle Ranch Regional Park""",1475.28,http://parks.sonomacounty.ca.gov/,,,,,,,,,
371,396,Main Entrance - Arata Lane ,"<p>
	See more details at <a href=http://parks.sonomacounty.ca.gov/Get_Outdoors/Parks/Foothill_Regional_Park.aspx"" target=""_blank"">Sonoma County Regional Parks</a>.&nbsp;</p>",,,,,,,,
<p>,,,,,,,,,,,
"	<span style=""font-family: arial; font-size: small;"">Foothill Regional Park encompasses 6.8 miles of trails through 211 acres of former ranchland. Foothill offers varied terrain from the challenging climb up Alta Vista Trail from Pond C", to a gentle stroll along gravel surfaced Three Lakes Trail which is moderately accessible for wheelchairs. Excellent views of the Windsor area can be had from several lookouts off of Westwood and Oakwood Trails. Picnic tables and benches can be found throughout the park. Foothill is popular with equestrians, and the majority of the trails in the park are available for riding. The following trails are dedicated to hiking only: Bobcat Trail, Pond A Loop, Pond B Loop, Pond C Trail, and the Ravine Trail.</span></p>,,,,,
",38.5611,-122.798,Foothill Regional Park""",1471.78,http://parks.sonomacounty.ca.gov/,,,,,,,,,
372,397,Fort Funston,"<p>
	&nbsp;</p>
<p>
	Fort Funston has quite a lot to offer, whether it&rsquo;s striking 200-foot sandy bluffs, or the open space for your dogs to run free and wrestle around until its heart&rsquo;s content. If you&rsquo;re not a fan of heights or dogs, you can observe the gorgeous southwest coastline and the adventurous hang gliders leaping off it, from the safety of a wooden deck that is directly in front of the parking lot.</p>
<p>
	Make sure to bring a jacket, the winds are almost constant here. Beginning on Skyline Road and walking up the narrow trail (there are a couple), you will be surrounded by sea figs. Once you get to the wider dirt path, and round the corner you will be greeted by beautiful cypress trees that, at times, make a shaded archway. Be sure to admire them for their own beauty, because when you round the corner and slowly make out the coastline, it will be hard to notice anything else. The height of the cliffs seem to amplify the splendor of the water. Glancing down at the shore, you will notice that many dogs and dog owners are enjoying that same landscape. From these cliffs, you can make it down to the beach. However, it is not wheelchair accessible and is rather steep.</p>
<p>
	&nbsp;Continuing along the main path, you will see a couple of trivial run-off trails towards the cliffs. If you&rsquo;re the adventurous type, it&rsquo;s worthwhile to follow one. The private views they offer are as scary as they are stunning. Moving forward along the dirt path, you will eventually see a parking lot straight ahead, and the path will continue along the cliff. Here, there are also a couple of run-off paths that offer great views- just be careful to not get too close.</p>
<p>
	&nbsp;Continuing on the main path will locate you in front of the wooden ramp and bridge that leads to one of the best look-out of the site, where you can view the stretching coastline, the sloping hillside with the houses upon it, and some adventurous hang gliders taking their chances with the wind. A very easy trail with lots of rewarding views.</p>
<p>
	&nbsp;</p>
",37.719,-122.501,Golden Gate National Recreation Area - San Francisco,1461.42,http://www.nps.gov/,,,
373,398,San Pedro Valley Park: Brooks Falls,NULL,37.5781,-122.476,San Pedro Valley Park,1461.23,http://www.ci.sanmateo.ca.us/,,,
374,400,San Pedro Valley Park: Valley View Loop,NULL,37.5789,-122.474,San Pedro Valley Park,1461.15,http://www.ci.sanmateo.ca.us/,,,
375,401,Sneath Lane,,37.6192,-122.454,Sweeney Ridge,1459.7,http://www.nps.gov/,,,
376,403,Mills Canyon Nature Area,NULL,37.5783,-122.395,San Francisco Watershed Lands,1456.84,http://sfwater.org/home.cfm,,,
377,404,Junipero Serra County Park,NULL,37.6095,-122.426,Junipero Serra Park,1458.25,http://www.ci.sanmateo.ca.us/,,,
378,405,Milagra Ridge,"<p>
	Surrounded by urban development, Milagra Ridge forms what biologists call an island ecosystem. Here, wildlife is isolated from other habitats, feeding and migration corridors are compromised and exotic species can easily invade native habitat. Despite this isolation, Milagra Ridge hosts a surprising number of threatened and endangered species including Mission blue and San Bruno elfin butterflies and the California red-legged frog. Milagra&rsquo;s proximity to urban development, its limited size and its rare wildlife make it exceptionally sensitive to human disturbance. Therefore, visitors are required to stay on trails and pets must be leashed. More from NPS <a href=http://www.nps.gov/goga/miri.htm"" target=""_blank"">here</a></p>",,,,,,,,
<p>,,,,,,,,,,,
"	<a href=""http://www.nps.gov/goga/upload/sb-miri.pdf"" target=""_blank"">NPS Milagra Ridge brochure with map</a>.</p>",,,,,,,,,,,
<p>,,,,,,,,,,,
"	Great maps and info from <a href=""http://www.bahiker.com/southbayhikes/milagra.html"" target=""_blank"">Bay Area Hiker</a></p>",,,,,,,,,,,
",37.6356,-122.474,Milagra Ridge - GGNRA""",1460.67,http://www.nps.gov/,,,,,,,,,
379,406,Angel Island State Park,NULL,37.8688,-122.435,Angel Island State Park,1456.67,http://www.parks.ca.gov/,,,
380,407,Blithedale Summit Open Space Preserve,NULL,37.922,-122.556,Blithdale Summit Open Space Preserve,1462.85,http://www.marinopenspace.org/,,,
381,408,Mount Tamalpais,,37.9273,-122.58,Marin Municipal Water District Watershed,1464.13,http://www.marinwater.org/,,,
382,409,Mount Tamalpais/Marin Municipal Water District: Deer Park,NULL,37.9748,-122.589,Marin Municipal Water District Watershed,1464.28,http://www.marinwater.org/,,,
383,410,Mount Tamalpais/Marin Municipal Water District: Phoenix Lake,"<p>
	This trailhead and the trail to Phoenix Lake was profiled in <a href=http://www.7x7.com/fitness-outdoors/hit-dirt-road-5-urban-running-trails"" target=""_blank"">7x7 magazine</a> about urban running trails.</p>",,,,,,,,
",37.9578,-122.572,Natalie Coffin Greene Park""",1463.48,http://www.rossrecreation.org/,,,,,,,,,
384,411,Baltimore Canyon Open Space Preserve,NULL,37.9312,-122.551,Blithdale Summit Open Space Preserve,1462.51,http://www.marinopenspace.org/,,,
385,412,King Mountain Open Space Preserve,NULL,37.9373,-122.539,King Mountain Open Space Preserve,1461.81,http://www.marinopenspace.org/,,,
386,413,Mount Tamalpais State Park: Mountain Home,"<p>
	Great spot to start a hike! Wonderful views of Mount Tam. You can access the Alice Eastwood Trail which you can take west and eventually access Muir Woods via the Camp Eastwood and Ben Johnshon trails. Or you can go east and hit up the <a href=http://www.touristclubsf.org/"" target=""_blank"">Tourist Club.</a></p>",,,,,,,,
<p>,,,,,,,,,,,
"	The <a href=""http://www.marintransit.org/stage.html"" target=""_blank"">Marin Stage Coach route 61 </a>drops off an picks up here.&nbsp;</p>",,,,,,,,,,,
",37.9102,-122.577,Mount Tamalpais State Park""",1464.1,http://www.parks.ca.gov/,,,,,,,,,
387,414,Chimney Rock,,37.9949,-122.98,Point Reyes National Seashore,1485.27,http://www.nps.gov/,,,
388,415,Muddy Hollow,,38.0479,-122.869,Point Reyes National Seashore,1478.91,http://www.nps.gov/,,,
389,416,Skyline Wilderness Park,NULL,38.2789,-122.25,Skyline Wilderness Park,1443.87,no website,,,
390,418,Lake Almaden Trail,"<p>
	Paved trail that follows perimeter of lake, with direct linkage to the Guadalupe River Trail and Los Alamitos Creek Trail systems.&nbsp; Note, the Lake Almaden Trail does not current loop around the entire lake.</p>
<p>
	For more information about San Jose Trails, visit <a href=http://www.sjparks.org/trails"">www.sjparks.org/trails</a></p>",,,,,,,,
",37.2414,-121.874,Almaden Lake""",1431.45,http://www.sanjoseca.gov/,,,,,,,,,
391,419,El Sereno Open Space Preserve,NULL,37.2135,-122.024,El Sereno OSP,1439.87,http://www.openspace.org,,,
392,421,El Corte De Madera Creek Open Space Preserve: Resolution Loop,NULL,37.4109,-122.306,El Corte de Madera,1453.44,http://www.openspace.org,,,
393,422,El Corte De Madera Creek Open Space Preserve: Tafoni Loop,NULL,37.406,-122.304,El Corte de Madera,1453.4,http://www.openspace.org,,,
394,423,Thornewood Open Space Preserve,NULL,37.3908,-122.259,Wunderlich Park,1451.08,http://www.ci.sanmateo.ca.us/,,,
395,424,Larry Lane Trail,NULL,37.3887,-122.24,Jasper Ridge Reserve,1450.05,http://jrbp.stanford.edu/,,,
396,425,Purisima Creek Redwoods Open Space Preserve: The Best of Purisima Creek Redwoods,NULL,37.4375,-122.371,Purisima Creek OSP,1456.73,http://www.openspace.org,,,
397,426,La Honda Creek Open Space Preserve,NULL,37.3794,-122.283,La Honda Creek OSP,1452.5,http://www.openspace.org,,,
398,427,Purisima Creek Redwoods Open Space Preserve: All-access Redwood Trail,NULL,37.43,-122.314,Purisima Creek OSP,1453.71,http://www.openspace.org,,,
399,428,Purisima Creek Redwoods Open Space Preserve: Bald Knob,NULL,37.422,-122.337,Purisima Creek OSP,1455.05,http://www.openspace.org,,,
400,429,Purisima Creek Redwoods Open Space Preserve: North Ridge Trail to a perfect picnic spot,NULL,37.4502,-122.339,Purisima Creek OSP,1454.88,http://www.openspace.org,,,
401,430,Bothe-Napa Valley SP-Saint Helena Hwy,NULL,38.5521,-122.522,Bothe-Napa Valley State Park,1456.98,http://www.parks.ca.gov/,,,
402,431,Stafford Lake County Park,NULL,38.1096,-122.64,Stafford Lake Watershed,1466.1,http://www.nmwd.com,,,
403,432,Samuel P. Taylor State Park: Devil's Gulch,"<p>
	Access to Samuel P. Taylor camping, the Devil&#39;s Gulch Fire Road and much more.&nbsp;</p>
<p>
	Route 68 of the <a href=http://www.marintransit.org/stage.html"" target=""_blank"">West Marin Stage Coach</a> goes by here", ask the bus driver to stop or wave down to get picked up.&nbsp;</p>,,,,,,,
",38.0297,-122.737,Samuel P. Taylor State Park""",1471.88,http://www.parks.ca.gov/,,,,,,,,,
404,433,Little Mountain Open Space Preserve,NULL,38.1161,-122.61,O'Hair Park,1464.42,http://www.ci.novato.ca.us/,,,
405,434,Indian Tree Open Space Preserve,NULL,38.1028,-122.634,Stafford Lake Watershed,1465.79,http://www.nmwd.com,,,
406,435,Mount Burdell Open Space Preserve,NULL,38.1301,-122.604,Mt. Burdell Open Space Preserve,1464,http://www.marinopenspace.org/,,,
407,436,Muir Beach,,37.8607,-122.575,Golden Gate National Recreation Area - Marin,1464.34,http://www.nps.gov/,,,
408,438,Bolinas Lagoon,,37.9302,-122.682,Audubon Canyon Ranch,1469.6,http://www.egret.org,,,
409,439,Kortum Trail: Sonoma Coast State Park,,38.4181,-123.104,Sonoma Coast State Beach,1489.14,http://www.parks.ca.gov/,,,
410,440,Portola Redwoods State Park,NULL,37.2465,-122.213,Portola Redwoods State Park,1449.9,http://www.parks.ca.gov/,,,
411,441,Burleigh Murray State Park,NULL,37.4448,-122.403,Burleigh Murray Ranch,1458.42,http://www.parks.ca.gov/,,,
412,442,Cowell Ranch Beach,NULL,37.4222,-122.426,Burleigh Murray Ranch,1459.9,http://www.parks.ca.gov/,,,
413,443,Poplar Beach Park Parking Lot,,37.4551,-122.444,Half Moon Bay State Beach,1460.55,http://www.parks.ca.gov/,,,
414,444,Henry W. Coe State Park: Headquarters,NULL,37.1866,-121.547,Henry W. Coe State Park,1414.13,http://www.parks.ca.gov/,,,
415,445,Lower Summit Lot,NULL,37.8807,-121.918,Mount Diablo State Park,1428.58,http://www.parks.ca.gov/,,,
416,446,Devil's Elbow,NULL,37.8797,-121.914,Mount Diablo State Park,1428.37,http://www.parks.ca.gov/,,,
417,447,Mount Diablo SP-Morgan Territory Rd,NULL,37.8996,-121.873,Mount Diablo State Park,1426.02,http://www.parks.ca.gov/,,,
418,448,Turtle Rock Ranch,NULL,37.8665,-121.944,Mount Diablo State Park,1430.12,http://www.parks.ca.gov/,,,
419,449,Dougherty Hills Open Space-Stagecoach Rd 2,NULL,37.7276,-121.922,Dougherty Hills Open Space,1429.95,http://www.ci.dublin.ca.us/,,,
420,450,Dougherty Hills Open Space-Crossridge Rd,NULL,37.7294,-121.914,Dougherty Hills Open Space,1429.52,http://www.ci.dublin.ca.us/,,,
421,451,Morgan Drive Walk-In Entrance,NULL,37.7496,-121.963,Bishop Ranch Regional Open Space,1431.99,http://www.ebparks.org/,,,
422,452,Pradera Way Walk-In Entrance,NULL,37.7721,-121.998,Bishop Ranch Regional Open Space,1433.72,http://www.ebparks.org/,,,
423,453,Highland Drive Walk-In Entrance,NULL,37.8086,-122.01,Las Trampas Regional Wilderness,1434.09,http://www.ebparks.org/,,,
424,454,Remington Loop Walk-In Entrance,NULL,37.8104,-122.003,Las Trampas Regional Wilderness,1433.7,http://www.ebparks.org/,,,
425,455,Country Hills Court Walk-In Entrance,NULL,37.7956,-121.935,Sycamore Valley Open Space Preserve,1430.15,http://www.ebparks.org/,,,
426,456,Woodside Court Walk-In Entrance,NULL,37.8023,-121.943,Sycamore Valley Open Space Preserve,1430.53,http://www.ebparks.org/,,,
427,457,Wood Ranch Circle Walk-In Entrance,NULL,37.7977,-121.935,Sycamore Valley Open Space Preserve,1430.1,http://www.ebparks.org/,,,
428,458,Northview Court Walk-In Entrance,NULL,37.7951,-121.932,Sycamore Valley Open Space Preserve,1429.94,http://www.ebparks.org/,,,
429,459,Tuscany Way Walk-In Entrance,NULL,37.8038,-121.929,Sycamore Valley Open Space Preserve,1429.72,http://www.ebparks.org/,,,
430,460,Sycamore Valley Open Space Preserve-Goldstone Ct,NULL,37.811,-121.93,Sycamore Valley Open Space Preserve,1429.74,http://www.ebparks.org/,,,
431,461,Sunhaven Road Walk-In Entrance,NULL,37.8185,-121.934,Sycamore Valley Open Space Preserve,1429.92,http://www.ebparks.org/,,,
432,462,Sherburne Hills Road Staging Area,NULL,37.8091,-121.948,Sycamore Valley Open Space Preserve,1430.75,http://www.ebparks.org/,,,
433,463,Sycamore Valley Park-Camino Tassajara 2,NULL,37.8065,-121.945,Sycamore Valley Open Space Preserve,1430.59,http://www.ebparks.org/,,,
434,464,Tassajara Creek Trail Staging Area,NULL,37.7231,-121.872,Arlington Park,1427.25,http://www.ci.san-ramon.ca.us/,,,
435,466,Mount Diablo SP-Mt Diablo Scenic Blvd,NULL,37.8423,-121.948,Mount Diablo State Park,1430.46,http://www.parks.ca.gov/,,,
436,467,Ano Nuevo State Reserve,NULL,37.1198,-122.307,Ano Nuevo State Reserve,1456.24,http://www.parks.ca.gov/,,,
437,468,Butano State Park,NULL,37.2018,-122.34,Butano State Park,1457.2,http://www.parks.ca.gov/,,,
438,469,Ano Nuevo State Reserve/Cascade Ranch,NULL,37.1653,-122.324,Cascade Ranch Unit - Ano Nuevo State Park,1456.72,http://www.parks.ca.gov/,,,
439,470,Wilbur's Watch,NULL,37.1831,-122.379,Ano Nuevo State Reserve,1459.54,http://www.parks.ca.gov/,,,
440,471,Deer Island Open Space Preserve,NULL,38.1022,-122.539,Deer Island Open Space Preserve,1460.66,http://www.marinopenspace.org/,,,
441,472,White Hill Open Space Preserve,NULL,38.0042,-122.616,White Hill OSP,1465.49,http://www.marinopenspace.org/,,,
442,473,Las Gallinas Wildlife Ponds,NULL,38.0256,-122.518,John F. McInnis County Park,1460.04,http://www.co.marin.ca.us/,,,
443,474,Terra Linda/Sleepy Hollow Divide Open Space Preserve (south),NULL,37.9898,-122.559,Terra Linda Ridge/Sleepy Hollow Divide,1462.55,http://www.marinopenspace.org/,,,
444,475,Terra Linda/Sleepy Hollow Divide Open Space Preserve (north),NULL,38.0072,-122.568,Terra Linda Ridge/Sleepy Hollow Divide,1462.91,http://www.marinopenspace.org/,,,
445,476,Indian Valley Open Space Preserve,NULL,38.0769,-122.581,Indian Valley Open Space,1463.11,http://www.marinopenspace.org/,,,
446,477,Ignacio Valley Open Space Preserve,NULL,38.0676,-122.567,Ignacio Valley Open Space Preserve,1462.41,http://www.marinopenspace.org/,,,
447,478,Rush Creek Open Space-Binford Rd 1,NULL,38.1185,-122.564,Rush Creek OSP,1461.92,http://www.marinopenspace.org/,,,
448,479,Rush Creek Open Space-Binford Rd 2,NULL,38.1186,-122.564,Rush Creek OSP,1461.92,http://www.marinopenspace.org/,,,
449,480,Pacheco Valle Open Space Preserve,NULL,38.0483,-122.534,Pacheco Valle Open Preserve,1460.76,http://www.marinopenspace.org/,,,
450,481,Loma Alta Open Space Preserve,NULL,38.0054,-122.605,Loma Alta Open Space Preserve,1464.89,http://www.marinopenspace.org/,,,
451,482,Santa Margarita Open Space Preserve,NULL,38.0084,-122.523,Civic Center Lagoon Park,1460.47,http://www.co.marin.ca.us/,,,
452,483,San Pedro Mountain Open Space Preserve,NULL,38.0015,-122.52,San Pedro Mountain Open Space,1460.35,http://www.marinopenspace.org/,,,
453,484,Santa Venetia Marsh Open Space Preserve,NULL,38.0143,-122.51,John F. McInnis County Park,1459.71,http://www.co.marin.ca.us/,,,
454,485,Lucas Valley Open Space Preserve,NULL,38.0374,-122.592,Lucas Valley Open Space Valley Preserve,1463.98,http://www.marinopenspace.org/,,,
455,486,Austin Creek State Recreation Area,NULL,38.5641,-123.012,Austin Creek State Recreation Area,1483.32,http://www.parks.ca.gov/,,,
456,487,Armstrong Redwoods State Reserve,NULL,38.5323,-123.003,Armstrong Redwoods Reserve,1482.98,http://www.parks.ca.gov/,,,
457,488,Crystal Springs Trail,NULL,37.5122,-122.35,San Francisco Watershed Lands,1454.95,http://sfwater.org/home.cfm,,,
458,489,Sawyer Camp Trail,NULL,37.5309,-122.364,San Francisco Watershed Lands,1455.56,http://sfwater.org/home.cfm,,,
459,492,West County Trail - Pajaro Ln,"<p>
	See more at <a href=http://parks.sonomacounty.ca.gov/Get_Outdoors/Parks/West_County_Regional_Trail.aspx"" target=""_blank"">Sonoma County Regional Parks</a>.&nbsp;</p>",,,,,,,,
<p>,,,,,,,,,,,
"	<span style=""font-family: arial; font-size: small;"">The West County Regional Trail runs between Sebastopol and Forestville. This approximately 5.57 mile section of trail starts near the intersection of Mill Station Road and Highway 116 in Sebastopol", and ends in Forestville. Access to the trail is located off the following public streets: Highway 116, Occidental Road, Grey Street, Graton Road, Green Valley Road, Ross Station Road, Ross Branch Road, and Pajaro Lane.</span></p>,,,
",38.472,-122.893,West County Trail""",1477.39,http://parks.sonomacounty.ca.gov/,,,,,,,,,
460,493,Pierson St Entrance,"<p>
	This is the south end of the Joe Rodota Trail.</p>
",38.437,-122.725,West County Trail,1468.55,http://parks.sonomacounty.ca.gov/,,,
461,494,Wildcat Canyon Regiona Park - N Arlington Blvd,Northern part of the Richmond to Lake Anza hike.,37.954,-122.324,Wildcat Canyon Regional Park,1450.06,http://www.ebparks.org/,,,
462,495,Montara State Beach - Montara,The southern end of the Pacifica to Montara trip.,37.5455,-122.514,Montara State Beach,1463.6,http://www.parks.ca.gov/,,,
463,497,Ocean Beach (N-Judah),"<p>
	The end of the N Judah Muni line.<br />
	<br />
	Access to Ocean Beach.<br />
	<br />
	Biking along the paved beachfront trail.<br />
	<br />
	Hiking on the beach.</p>
",37.7602,-122.51,Golden Gate National Recreation Area - San Francisco,1461.61,http://www.nps.gov/,,,
464,499,Sweeny Ridge Road,,37.5994,-122.479,Cattle Hill,1461.22,http://www.ci.pacifica.ca.us/,,,
465,500,Bolinas Ridge North,"<p>
	The entrance to the north end of the Bolinas Ridge Trail, one of the most beautiful hikes in the Bay Area! Expansive views of the coastal grasslands and rolling hills.&nbsp;<br />
	Route 68 of the <a href=http://www.marintransit.org/stage.html"" target=""_blank"">Marin Stage Coach</a> goes by here", you&#39;ll have to ask the bus driver to drop you off and wave down to get picked up.&nbsp;</p>,,,,,,,
",38.0461,-122.771,Golden Gate National Recreation Area - Marin""",1473.59,http://www.nps.gov/,,,,,,,,,
466,503,Crocker Ave - San Bruno Park,,37.7015,-122.443,San Bruno Mountain State Park,1458.43,http://www.parks.ca.gov/,,,
467,504,Mandalay Pl - San Bruno Park,,37.6666,-122.401,San Bruno Mountain State Park,1456.44,http://www.parks.ca.gov/,,,
468,505,College Drive,"<p>
	Sweeney Ridge is a hilly hiking area of ridges and ravines between San Bruno and Pacifica, about a 25-minute drive south from San Francisco. The ridge&rsquo;s 1,200-foot-high summit, covered with coastal scrub and grassland, slopes down to the bay on one side and to the Pacific on the other. <a href=http://www.parksconservancy.org/visit/park-sites/sweeney-ridge.html"" target=""_blank"">More info from GGNPC</a>.</p>",,,,,,,,
<p>,,,,,,,,,,,
"	<a href=""http://www.nps.gov/goga/planyourvisit/upload/sb-sweeney-2008.pdf"" target=""_blank"">NPS brochure</a></p>",,,,,,,,,,,
",37.6286,-122.464,Sweeney Ridge""",1460.15,http://www.nps.gov/,,,,,,,,,
469,506,Lafayette Moraga Trail - Stafford Road,,37.8429,-122.117,Moraga Commons Park,1439.65,http://www.ci.moraga.ca.us/,,,
470,507,Dimond Park - Lyman Road and Fruitvale Ave,,37.8039,-122.215,Dimond Canyon Park,1445.27,http://www.oaklandnet.com/,,,
471,508,Morning Sun Trail,"<p>
	Great spot to start a hike in the Marin Headlands.&nbsp;<br />
	This is the entrance to the Morning Sun trail which takes you to the Alta trail. From there you can access many miles of hiking trails including Rodeo Beach, Hawk Hill, Tennessee Valley, Hawk Camp and many more.&nbsp;</p>
<p>
	Download map of the Marin Headlands <a href=http://www.nps.gov/goga/upload/2008-0910-mahe-map-web.pdf"" target=""_blank"">here</a>.</p>",,,,,,,,
<p>,,,,,,,,,,,
"	<a href=""http://goldengatetransit.org/schedules/current/route_70.php"" target=""_blank"">Golden Gate 70/80 </a>drops of here and you can also walk from the Sausalito Ferry Terminal.&nbsp;</p>",,,,,,,,,,,
",37.853,-122.493,Golden Gate National Recreation Area - Marin""",1459.98,http://www.nps.gov/,,,,,,,,,
472,512,Dipsea Trail (Muir Woods),"<p>
	Nestled in a cool, foggy canyon north of the Golden Gate, Muir Woods is the world&rsquo;s most famous grove of virgin redwoods (Sequoia sempervirens). These tall trees are a spectacular remnant of the vast redwood forests that once graced the slopes and valleys surrounding San Francisco Bay. Easy, flat trails loop through Muir Woods along a creek where endangered coho salmon spawn each winter. <a href=http://www.parksconservancy.org/visit/park-sites/muir-woods-national-monument.html"" target=""_blank"">Much more from GGNPC here</a>.&nbsp;</p>",,,,,,,,
<p>,,,,,,,,,,,
"	Access the infamous Dipsea trail from here or explore the towering redwoods of Muir Woods National Monument.</p>",,,,,,,,,,,
<p>,,,,,,,,,,,
"	<a href=""http://www.nps.gov/muwo/upload/muir_woods_pad_map-2.pdf"" target=""_blank"">NPS Trail Map</a></p>",,,,,,,,,,,
",37.8913,-122.568,Mount Tamalpais State Park""",1463.77,http://www.parks.ca.gov/,,,,,,,,,
473,513,Sutro Baths,"<p>
	Great new trails from this trailhead with unbelievable views of the Golden Gate Bridge and the ocean. Various ways to hike down to the rocky beaches.</p>
<p>
	Barrier Free Access: A 3/4 mile paved trail meanders through cypress trees then turns to gravel.Can be windy so dress warm.</p>
<p>
	BAHiker has photos and info on this <a href=http://www.bahiker.com/sfhikes/landsend.html"" target=""_blank"">here</a></p>",,,,,,,,
",37.7802,-122.512,Golden Gate National Recreation Area - San Francisco""",1461.54,http://www.nps.gov/,,,,,,,,,
474,514,Paradise Beach Park,"&nbsp;Great park with large playing fields, amazing views of the Bay. There are&nbsp;group picnic sites, lawn areas, a horseshoe court, sandy beach and a fishing pier.",37.8934,-122.458,Paradise Beach,1457.78,http://www.co.marin.ca.us/,,,
475,515,Millerton Point - Tomales Bay State Park,,38.1086,-122.845,Tomales Bay State Park,1477.16,http://www.parks.ca.gov/,,,
476,521,Tidewater Staging Area,"<p>
	Tidewater Staging Area at the Martin Luther King Jr Regional Shoreline</p>
",37.7613,-122.223,MLK Regional Shoreline,1446.03,http://www.ebparks.org/,,,
477,526,Martin Luther King Jr Grove,"<p>
	&nbsp;Easy access to the Arrowhead Marsh Trail.</p>
",37.731,-122.207,MLK Regional Shoreline,1445.41,http://www.ebparks.org/,,,
478,528,Lafayette Reservoir,,37.885,-122.141,EBMUD,1440.61,http://www.ebmud.com/,,,
479,529,Martin Luther King Jr. Regional Shoreline,,37.7421,-122.209,MLK Regional Shoreline,1445.41,http://www.ebparks.org/,,,
480,533,Loch Lomond Recreation Area,,37.1109,-122.065,Loch Lomond Recreation Area,1443.09,http://www.ci.santa-cruz.ca.us/,,,
481,534,Henry Cowell State Park - Fall Creek Unit,,37.0497,-122.083,Henry Cowell Redwoods State Park,1444.69,http://www.parks.ca.gov/,,,
482,535,Henry Cowell State Park,,37.0402,-122.063,Henry Cowell Redwoods State Park,1443.7,http://www.parks.ca.gov/,,,
483,536,Wilder Ranch State Park,,36.96,-122.086,Wilder Ranch State Park,1445.73,http://www.parks.ca.gov/,,,
484,539,Big Basin Redwood State Park - Waterfall Loop,,37.1721,-122.222,Big Basin Redwoods State Park,1451.09,http://www.parks.ca.gov/,,,
485,540,Big Basin Redwood State Park - Buzzard's Roost,,37.1721,-122.222,Big Basin Redwoods State Park,1451.09,http://www.parks.ca.gov/,,,
486,541,Big Basin Redwood State Park - Berry Creek Falls from the Ocean,,37.0972,-122.279,Big Basin Redwoods State Park,1454.94,http://www.parks.ca.gov/,,,
487,547,Burton Creek State Park at North Lake Blvd,,39.1864,-120.125,Burton Creek State Park,1325.87,http://www.parks.ca.gov/,,,
488,548,Crissy Field Picnic Tables,"<p>
	Take a load off and enjoy the sites from these picnic tables.</p>
<p>
	<a href=http://www.presidio.gov/NR/rdonlyres/A26635BC-AE79-4EDA-846B-BF5700B926A5/0/PresidioTrailsMap_SEPT2010.pdf"" style=""margin-top: 0px; margin-right: 0px; margin-bottom: 0px; margin-left: 0px; padding-top: 0px; padding-right: 0px; padding-bottom: 0px; padding-left: 0px; border-top-width: 0px; border-right-width: 0px; border-bottom-width: 0px; border-left-width: 0px; border-style: initial; border-color: initial; font-size: 14px; font: inherit; vertical-align: baseline; text-decoration: none; "" target=""_blank"">Trail Map of Presidio</a></p>",,,,,,,,
"<p style=""margin-top: 0px; margin-right: 0px; margin-bottom: 0px; margin-left: 0px; padding-top: 0px; padding-right: 0px; padding-bottom: 1em; padding-left: 0px; border-top-width: 0px; border-right-width: 0px; border-bottom-width: 0px; border-left-width: 0px; border-style: initial; border-color: initial; font-size: 14px; font: inherit; vertical-align: baseline; line-height: 1.5em; color: rgb(103",119," 128); "">",,,,,,,,,
"	<a href=""http://www.presidio.gov/NR/rdonlyres/9DE6832B-2937-4456-9D19-0AE5C2E4FAF9/0/PresidioBikeMapPRINTABLE.pdf"" style=""margin-top: 0px; margin-right: 0px; margin-bottom: 0px; margin-left: 0px; padding-top: 0px; padding-right: 0px; padding-bottom: 0px; padding-left: 0px; border-top-width: 0px; border-right-width: 0px; border-bottom-width: 0px; border-left-width: 0px; border-style: initial; border-color: initial; font-size: 14px; font: inherit; vertical-align: baseline; text-decoration: none; "" target=""_blank"">Bike Trail Map of Presidio</a></p>",,,,,,,,,,,
",37.8069,-122.469,Presidio,1459.02,http://www.nps.gov/
489,561,Wildcat Creek Trail""",&nbsp;Great Trailhead,37.9087,-122.265,Wildcat Canyon Regional Park,1447.17,http://www.ebparks.org/,,,,,
490,563,Lake Chabot Marina,,37.7162,-122.104,Anthony Chabot Regional Park,1439.89,http://www.ebparks.org/,,,
491,564,Chinquapin Trail - Empire Grade Road,,37.0177,-122.079,UC Santa Cruz Campus Natural Reserve,1444.8,http://www.universityofcalifornia.edu/,,,
492,566,Rincon Fire Trail,,37.0127,-122.054,Henry Cowell Redwoods State Park,1443.45,http://www.parks.ca.gov/,,,
493,568,Patterson Ranch Road,,37.5539,-122.091,Coyote Hills Regional Park,1440.52,http://www.ebparks.org/,,,
494,570,Lick Observatory,This is the top of Mount Hamilton!&nbsp;,37.3417,-121.643,Lick Observatory UCSC,1417.95,http://www.universityofcalifornia.edu/,,,
495,573,Top of Mount Diablo,Top of Mount Diablo!,37.8817,-121.915,Mount Diablo State Park,1428.39,http://www.parks.ca.gov/,,,
496,576,"Geary Ave, McCorkle Trail",,37.51,-121.829,Sunol Regional Wilderness,1426.61,http://www.ebparks.org/,,,
497,577,Canyon View Trail - Cerro Este Road,,37.5056,-121.815,Sunol Regional Wilderness,1425.89,http://www.ebparks.org/,,,
498,578,Ardenwood Historic Farm Parking Lot,,37.5559,-122.051,Ardenwood Historic Farm,1438.33,http://www.ci.fremont.ca.us/,,,
499,580,Burton West Ridge Path - Wilton Drive,,37.8269,-122.187,Redwood Regional Park,1443.54,http://www.ebparks.org/,,,
500,581,Lafayette Ridge Trail - Monticello Road,,37.9041,-122.125,Briones Regional Park,1439.65,http://www.ebparks.org/,,,
501,582,Spengler Trail - Echo Springs Road,,37.9279,-122.118,Briones Regional Park,1439.06,http://www.ebparks.org/,,,
502,583,Mill Creek Road - North Central,,37.5233,-121.888,Mission Peak Regional Preserve,1429.74,http://www.ebparks.org/,,,
503,586,Mill Creek Road - North East,,37.5197,-121.876,Mission Peak Regional Preserve,1429.09,http://www.ebparks.org/,,,
504,587,Lake Temescal Recreation Area Parking Lot,,37.8482,-122.232,Temescal Regional Recreation Area,1445.87,http://www.ebparks.org/,,,
505,588,Lake Temescal Recreation Area South Parking Lot,,37.8435,-122.227,Temescal Regional Recreation Area,1445.63,http://www.ebparks.org/,,,
506,589,High Ridge Loop Trail - Tamarack Dr,,37.6109,-122.018,Dry Creek/Pioneer Regional Park,1436.07,http://www.ebparks.org/,,,
507,590,Dry Creek Terrace - Garin Ave,,37.6274,-122.029,Garin/Dry Creek Regional Park,1436.54,http://www.ebparks.org/,,,
508,592,Foothill Road Access Point Pleasant Ridge,,37.6024,-121.886,Pleasanton Ridge Regional Park,1428.95,http://www.ebparks.org/,,,
509,593,Contra Loma Blvd South East,,37.9719,-121.824,Black Diamond Mines,1422.82,http://www.ebparks.org/,,,
510,594,Contra Loma Main Parking Lot ,,37.9723,-121.831,Black Diamond Mines,1423.19,http://www.ebparks.org/,,,
511,595,Contra Loma East Side,,37.9738,-121.822,Black Diamond Mines,1422.71,http://www.ebparks.org/,,,
512,596,Cloverdale Road and Gazos Creek Intersection,,37.1861,-122.34,Butano State Park,1457.35,http://www.parks.ca.gov/,,,
513,600,Pogonip Creek Nature Loop,,36.9917,-122.039,Pogonip Open Space Preserve,1442.86,http://www.ci.santa-cruz.ca.us/,,,
514,601,Big Ben Trail,,37.0702,-122.124,Henry Cowell Redwoods State Park,1446.74,http://www.parks.ca.gov/,,,
515,603,Loch Lomond Trail,,37.1108,-122.065,Loch Lomond Recreation Area,1443.08,http://www.ci.santa-cruz.ca.us/,,,
516,605,New Brighton State Beach Trails,,36.98,-121.938,New Brighton State Beach,1437.45,http://www.parks.ca.gov/,,,
517,607,West Ridge Trail,,37.0064,-121.907,The Forest of Nisene Marks State Park,1435.52,http://www.parks.ca.gov/,,,
518,608,Porter Trail North,,37.0146,-121.905,The Forest of Nisene Marks State Park,1435.33,http://www.parks.ca.gov/,,,
519,611,DeLaveaga Trails,,36.9987,-122.004,DeLaveaga Park & Golf Course,1440.88,http://www.ci.santa-cruz.ca.us/,,,
520,612,Powder Mill Trail,,37.0156,-122.035,Henry Cowell Redwoods State Park,1442.39,http://www.parks.ca.gov/,,,
521,613,Woodcutter's Trail,,37.0198,-122.106,Wilder Ranch State Park,1446.26,http://www.parks.ca.gov/,,,
522,614,Ao Nuevo Trail,,37.2019,-122.339,Butano State Park,1457.19,http://www.parks.ca.gov/,,,
523,622,Carkeek Park - Piper's Creek Trail,,47.7033,-122.363,Carkeek Park,1529,http://www.seattle.gov/parks/,,,
524,625,Falls Trail,,37.9032,-121.916,Mount Diablo State Park,1428.29,http://www.parks.ca.gov/,,,
525,639,GG Panhandle - Baker and Fell,"<p>
	A great starting point for a run, bike ride or hike through golden gate park. There is a paved trail that starts here.&nbsp;</p>
",37.7736,-122.441,Golden Gate Park,1457.75,http://www.sfgov.org/,,,
526,691,emigrant trail,Great hike or snowshoe out to Pressor Reservoir,39.3922,-120.186,Tahoe National Forest,1328.8,http://www.fs.fed.us/,,,
527,695,06 trailhead,,39.3129,-120.189,Tahoe National Forest,1329.09,http://www.fs.fed.us/,,,
528,698,Rhubarb Trail,"&nbsp;A short trail along the creek that leads to the Miwok trail or a bit farther to the Tennessee Valley parking lot. A nice single track trail, but watch out for poison oak.&nbsp;",37.8696,-122.528,Golden Gate National Recreation Area - Marin,1461.73,http://www.nps.gov/,,,
529,699,Quail Hollow - Sunset Trail,,37.0859,-122.067,Quail Hollow Ranch Park,1443.46,http://www.co.santa-cruz.ca.us/,,,
530,700,Quail Hollow - Main Entrance,,37.0842,-122.062,Quail Hollow Ranch Park,1443.18,http://www.co.santa-cruz.ca.us/,,,
531,701,Henry Cowell - Pine Flat Trail,,37.079,-122.134,Henry Cowell Redwoods State Park,1447.15,http://www.parks.ca.gov/,,,
532,705,Columbine Trail,,37.0353,-122.042,Henry Cowell Redwoods State Park,1442.58,http://www.parks.ca.gov/,,,
533,730,Tunnel Trail,,34.465,-119.713,Rattlesnake Canyon Park,1349.83,http://www.santabarbaraca.gov/home.htm,,,
534,880,Donahue St,"<p>
	Great access from Marin City Transfer station. The West Marin Stage Coach and GG 80/70 all stop there.</p>
",37.8754,-122.52,Golden Gate National Recreation Area - Marin,1461.24,http://www.nps.gov/,,,
535,901,Arroyo Seco start,Description (optional),36.2348,-121.49,Los Padres National Forest,1421.23,http://www.fs.fed.us/,,,
536,903,Ysc Trailhead,"<p>
	A great trailhead to get up to Mission Peak and Sunol. You could start the entire Ohlone Wilderness Trail hike from here</p>
",37.5273,-121.913,Mission Peak Regional Preserve,1431.04,http://www.ebparks.org/,,,
537,906,Coastal Trail (Conzelman Rd),"<p>
	Access the amazing Coastal Trail here. This is a part of the <a href=http://www.ridgetrail.org"" target=""_blank"">Bay Area Ridge Trai</a>l.</p>",,,,,,,,
",37.8338,-122.495,Golden Gate National Recreation Area - Marin""",1460.19,http://www.nps.gov/,,,,,,,,,
538,910,Skyline to Sea Trail Starting Point,"<p>
	This is the start of the Skyline to Sea Trail</p>
",37.2578,-122.123,Long Ridge Open Space Preserve,1444.86,http://www.openspace.org,,,
539,915,17th & Stanyan Trailhead,"<p>
	Opened in 2011, this trailhead restores a long-lost access from Cole Valley neighborhood into Interior Greenbelt and Mt. Sutro Open Space Reserve. It&#39;s one of the most scenic approaches to Mt Sutro, and it&#39;s a short walk from MUNI N, 6, 37, and 43. &nbsp;</p>
<p>
	The Historic Trail starts up a wooden stairway then turns up a narrow garden between two old houses, before entering a dense eucalyptus forest. Soon you join an old path and climb along Woodland Creek (audible after rain) then switchback across the upper slopes. &nbsp;The sheltered forest understory has marvelous songbirds early in the morning, and numerous native plants amidst the invasive ivy and blackberry.</p>
<p>
	In about 0.4 mile is a junction with the Edgewood Trail.&nbsp;Here you can continue straight to follow the Historic Trail around the west flank of Mt. Sutro en route to the summit; or ascend sharp left on the Edgewood Trail to reach the Fairy Gates and North Ridge Trails, or descend right to Edgewood Ave.&nbsp;</p>
<p>
	The grade is generally easy (10%), though about 100 yards into the woods is a brief, steep (20%) stretch that can be a bit of a challenge.</p>
<p>
	The trail is multiuse, though bicyclists will need to dismount and carry their bikes on the Stanyan Street stairs.</p>
<p>
	Learn more and find a detailed trail map at <a href=http://www.sutrostewards.org"">www.sutrostewards.org</a>.</p>",,,,,,,,
<div>,,,,,,,,,,,
"	&nbsp;</div>",,,,,,,,,,,
",37.7613,-122.452,Interior Green Belt""",1458.45,http://www.sfgov.org/,,,,,,,,,
540,925,South End Cowell-Purisma Trail,"<p>
	A nice 3 mile starts from here along the coastal bluffs with views of the Santa Cruz mountains to the east and ocean beaches to the west. On the northern end, stop by the Cowell State Beach lunch or a rest.&nbsp;</p>
",37.3962,-122.416,Purisima Farms,1459.56,http://www.openspacetrust.org/,,,
541,931,Stone Cellar Campground,"<p>
	No advertisement to the public. All word of mouth. Great folks. Big open meadow area. Cheap camping. Lots of trails out of area.</p>
",38.9591,-120.351,El Dorado National Forest,1338.55,http://www.fs.fed.us/,,,
542,937,the last chance,"<p>
	Description (optional)</p>
",41.7008,-124.139,Redwood National Park,1538.62,http://www.nps.gov/,,,
543,955,Point Lobos State Park,"<p>
	Description (optional)</p>
",36.5159,-121.937,Point Lobos State Reserve,1442.42,http://www.parks.ca.gov/,,,
544,969,Lover's Lane,"<p>
	Access Lover&#39;s Lane or the Mountain Lakes trail from here.&nbsp;</p>
",37.7919,-122.448,Presidio,1457.98,http://www.nps.gov/,,,
545,970,Muir Woods National Monument,"<p>
	The park&#39;s award-winning trails are recognized for their accessibility, providing visitors with an easy walk on paved trails or boardwalks through the Woods. Other trails to the ridge tops offer a more strenuous experience for avid hikers. In the light gaps beneath the redwood trees are red alders, California big leaf maples, tanoaks, and Douglas fir. The forest floor is covered in redwood sorrel, ferns, fungi, duff and debris. Several bridges cross Redwood Creek which flows through the park year-round. Wildlife residents include the endangered coho salmon fingerlings, Pacific wren, woodpeckers, owls, deer, chipmunks, skunks, river otters and squirrels to name a few. More info <a href=http://www.nps.gov/muwo/index.htm"" target=""_blank"">here</a>.</p>",,,,,,,,
<p>,,,,,,,,,,,
"	This is the place to start your Muir Woods adventure.&nbsp;</p>",,,,,,,,,,,
<p>,,,,,,,,,,,
"	<a href=""http://marintransit.org/routes/66.html"" target=""_blank""><br />",,,,,,,,,,,
"	Consider taking public transit to avoid the traffic and parking</a>.</p>",,,,,,,,,,,
<p>,,,,,,,,,,,
"	<a href=""http://www.nps.gov/muwo/upload/muir_woods_pad_map-2.pdf"" target=""_blank""><br />",,,,,,,,,,,
"	NPS map here</a></p>",,,,,,,,,,,
<p>,,,,,,,,,,,
"	<a href=""http://www.nps.gov/muwo/upload/Trail-Descriptions-pdf.pdf"" target=""_blank""><br />",,,,,,,,,,,
"	Some suggested hiking routes.&nbsp;</a></p>",,,,,,,,,,,
",37.892,-122.57,Golden Gate National Recreation Area - Marin""",1463.87,http://www.nps.gov/,,,,,,,,,
546,971,Dipsea Trail/Sun Trail,"<p>
	Access to the Sun Trail and Dipsea Trail from here.&nbsp;</p>
",37.8971,-122.561,Mount Tamalpais State Park,1463.32,http://www.parks.ca.gov/,,,
547,981,Fort Point,"<p>
	From its vantage point overlooking the spectacular Golden Gate, Fort Point protected San Francisco harbor from Confederate&nbsp;&amp; foreign attack during&nbsp;&amp; after the U.S. Civil War. Its beautifully arched casemates display the art of the master brick mason from the Civil War period.</p>
<p>
	<a href=http://www.nps.gov/fopo/index.htm"" target=""_blank"">NPS page.</a></p>",,,,,,,,
<p>,,,,,,,,,,,
"	<a href=""http://www.parksconservancy.org/visit/park-sites/fort-point.html"" target=""_blank"">GGNPC&nbsp;has some great information on Fort Point.</a></p>",,,,,,,,,,,
",37.8104,-122.477,Presidio,1459.41,http://www.nps.gov/
548,982,Veterans' Memorial Trail""","<p>
	This neighborhood trail provides access to a nice oak-studded ridgeline overlooking the City of Santa Rosa. The trail continues to Parktrail Dr. in the neighborhood to the north, or to the Canal Trail which leads to Annadel State Park and Spring Lake Regional Park.</p>
",38.4371,-122.653,Annadel State Park,1464.69,http://www.parks.ca.gov/,,,,,
549,984,Emeryville Marina,,37.8396,-122.315,Marina Park,1450.42,http://www.ci.san-leandro.ca.us/,,,
550,986,Shelldance,"<p>
	Surrounded by urban development, Milagra Ridge forms what biologists call an island ecosystem. Here, wildlife is isolated from other habitats, feeding and migration corridors are compromised and exotic species can easily invade native habitat. Despite this isolation, Milagra Ridge hosts a surprising number of threatened and endangered species including Mission blue and San Bruno elfin butterflies and the California red-legged frog. Milagra&rsquo;s proximity to urban development, its limited size and its rare wildlife make it exceptionally sensitive to human disturbance. Therefore, visitors are required to stay on trails and pets must be leashed. <a href=http://www.nps.gov/goga/miri.htm"" target=""_blank"">More from NPS</a>.</p>",,,,,,,,
<p>,,,,,,,,,,,
"	<a href=""http://www.nps.gov/goga/upload/sb-miri.pdf"" target=""_blank"">NPS brochure.</a></p>",,,,,,,,,,,
<p>,,,,,,,,,,,
"	<a href=""http://www.parksconservancy.org/visit/park-sites/milagra-ridge.html"" target=""_blank"">GGNPC has some great information on this park</a></p>",,,,,,,,,,,
",37.6184,-122.485,Sweeney Ridge""",1461.4,http://www.nps.gov/,,,,,,,,,
551,995,Montara Mountain,"<p>
	Description (optional)</p>
",37.563,-122.513,Montara State Beach,1463.36,http://www.parks.ca.gov/,,,
552,1012,Pacheco Fire Road,"<p>
	Easily accessible trailhead from the Golden Gate 70/80 or the West Marin Stage Coach, it is just a few blocks from the Marin City Transit center.&nbsp;</p>
<p>
	Excellent hiking through the <a href=http://www.parksconservancy.org/visit/park-sites/marin-headlands.html"" target=""_blank"">Marin Headlands</a> and the <a href=""http://www.nps.gov/goga/marin-headlands.htm"" target=""_blank"">Golden Gate National Recreation Area</a>.&nbsp;</p>",,,,,,,,
<p>,,,,,,,,,,,
"	Quickly access amazing views of the San Francisco Bay and the pacific ocean.</p>",,,,,,,,,,,
",37.87,-122.515,Golden Gate National Recreation Area - Marin""",1461.02,http://www.nps.gov/,,,,,,,,,
553,1014,Pomo Canyon Campground - for Pomo Trail,"<p>
	East node of Pomo / Red Hill Trail. &nbsp;Access via Willow Creek Road (turnoff from Hwy 1 near Sizzling Tandor Restaurant). &nbsp;</p>
<p>
	Driveway to Pomo Campground is closed, but you can park outside gate (don&#39;t block gate) and walk in.</p>
<p>
	Trail is starts off with steep incline as you go east, but flattens out to sweeping views of Russian River. &nbsp;Side trail goes up to top of Red Hill for great views to south.</p>
",38.4249,-123.066,Sonoma Coast State Beach,1487.03,http://www.parks.ca.gov/,,,
554,1015,Marin Headlands Visitor Center,"<p>
	Welcome to the <a href=http://www.nps.gov/goga/marin-headlands.htm"" target=""_blank"">Marin Headlands</a>!&nbsp;The Marin Headlands is one of the crown jewels of the Golden Gate National Parks&mdash;very few other metropolitan areas have such vast wilderness right in their own backyard. A short trip across the Golden Gate Bridge offers boundless opportunities to enjoy this expansive land of natural beauty and cultural history. The Headlands consist of several individual sites linked by an extensive network of trails. See more at the <a href=""http://www.parksconservancy.org/visit/park-sites/marin-headlands.html"" target=""_blank"">Golden Gate Parks Conservancy </a>site.</p>",,,,,,,,
",37.8306,-122.525,Golden Gate National Recreation Area - Marin""",1461.85,http://www.nps.gov/,,,,,,,,,
555,1016,Arguello Gate,"<p>
	Start your Presidio adventure here!</p>
",37.7897,-122.459,Presidio,1458.62,http://www.nps.gov/,,,
556,1017,Ecology Trail - Inspiration Point,,37.792,-122.458,Presidio,1458.54,http://www.nps.gov/,,,
557,1019,Presidio Gate,,37.79,-122.458,Presidio,1458.56,http://www.nps.gov/,,,
558,1022,Fort Mason,"<p>
	Great spot for chilling at the park, excellent views of the Golden Gate Bridge. Easy access from the cable car.&nbsp;</p>
<p>
	Access Crissy Field, Fort Mason, Swimmer&#39;s Cove, Maritime museum and much more.&nbsp;</p>
",37.8037,-122.43,Golden Gate National Recreation Area - San Francisco,1456.93,http://www.nps.gov/,,,
559,1023,SF Maritime and Swimmer's Cove,"<p>
	Start a nice hike along the bay from here. You can hike over to Fort Mason, along Crissy Field and all the way to the Golden Gate Bridge.&nbsp;</p>
",37.8077,-122.422,Golden Gate National Recreation Area - San Francisco,1456.45,http://www.nps.gov/,,,
560,1028,Tennessee Hollow Trail,"<p>
	Access the Tennessee Hollow Trail in the Presidio from here. The Julius Kahn Playground is also accessible from this location.&nbsp;</p>
",37.7909,-122.454,Julius Kahn Playground,1458.32,http://www.sfgov.org/,,,
561,1029,Broadway Gate,"<p>
	Get on the Mountain Lake Trail here.&nbsp;</p>
",37.7929,-122.447,Presidio,1457.91,http://www.nps.gov/,,,
562,1030,Mountain Lake Park,"<p>
	Visit a nature oasis right in the city at Mountain Lake.&nbsp;</p>
